{
"type": "FeatureCollection",
"name": "sandra_centros_acopio",
"crs": { "type": "name", "properties": { "name": "urn:ogc:def:crs:OGC:1.3:CRS84" } },
"features": [
{ "type": "Feature", "properties": { "Name": "Plantel No 2 de Preparatoria Nezahualcoyotl", "tessellate": -1, "extrude": 0, "visibility": -1 }, "geometry": { "type": "Point", "coordinates": [ -99.6322525, 19.282122, 0.0 ] } },
{ "type": "Feature", "properties": { "Name": "Plantel Cuauhtémoc de la Escuela Preparatoria", "tessellate": -1, "extrude": 0, "visibility": -1 }, "geometry": { "type": "Point", "coordinates": [ -99.6450579, 19.305114, 0.0 ] } },
{ "type": "Feature", "properties": { "Name": "Preparatoria No. 4 \"Ignacio Ramirez\"", "tessellate": -1, "extrude": 0, "visibility": -1 }, "geometry": { "type": "Point", "coordinates": [ -99.6708558, 19.2957073, 0.0 ] } },
{ "type": "Feature", "properties": { "Name": "Prepa 5", "tessellate": -1, "extrude": 0, "visibility": -1 }, "geometry": { "type": "Point", "coordinates": [ -99.645111, 19.260353, 0.0 ] } },
{ "type": "Feature", "properties": { "Name": "Facultad de Medicina Universidad Autónoma del Estado de México", "tessellate": -1, "extrude": 0, "visibility": -1 }, "geometry": { "type": "Point", "coordinates": [ -99.6589136, 19.2721132, 0.0 ] } },
{ "type": "Feature", "properties": { "Name": "Facultad De Antropología UAEM", "tessellate": -1, "extrude": 0, "visibility": -1 }, "geometry": { "type": "Point", "coordinates": [ -99.6568829, 19.2744736, 0.0 ] } },
{ "type": "Feature", "properties": { "Name": "Facultad de Economía", "tessellate": -1, "extrude": 0, "visibility": -1 }, "geometry": { "type": "Point", "coordinates": [ -99.6762957, 19.2835112, 0.0 ] } },
{ "type": "Feature", "properties": { "Name": "Facultad de Ciencias Políticas y Sociales", "tessellate": -1, "extrude": 0, "visibility": -1 }, "geometry": { "type": "Point", "coordinates": [ -99.6791855, 19.2866448, 0.0 ] } },
{ "type": "Feature", "properties": { "Name": "facultad De Odontologia", "tessellate": -1, "extrude": 0, "visibility": -1 }, "geometry": { "type": "Point", "coordinates": [ -99.6582283, 19.2734556, 0.0 ] } },
{ "type": "Feature", "properties": { "Name": "Facultad de Humanidades", "tessellate": -1, "extrude": 0, "visibility": -1 }, "geometry": { "type": "Point", "coordinates": [ -99.6774272, 19.2796814, 0.0 ] } },
{ "type": "Feature", "properties": { "Name": "Facultad de Ciencias Agrícolas de la UAEMex", "tessellate": -1, "extrude": 0, "visibility": -1 }, "geometry": { "type": "Point", "coordinates": [ -99.6907783, 19.4089235, 0.0 ] } },
{ "type": "Feature", "properties": { "Name": "UAEM: Campus Ecatepec", "tessellate": -1, "extrude": 0, "visibility": -1 }, "geometry": { "type": "Point", "coordinates": [ -99.0576937, 19.5981039, 0.0 ] } },
{ "type": "Feature", "properties": { "Name": "EDIFICIO D CU UAEM VALLE DE CHALCO", "tessellate": -1, "extrude": 0, "visibility": -1 }, "geometry": { "type": "Point", "coordinates": [ -98.9556974, 19.2992838, 0.0 ] } },
{ "type": "Feature", "properties": { "Name": "UAEM: Unidad Académica Profesional Cuautitlán Izcalli", "tessellate": -1, "extrude": 0, "visibility": -1 }, "geometry": { "type": "Point", "coordinates": [ -99.2139105, 19.643974, 0.0 ] } },
{ "type": "Feature", "properties": { "Name": "UAEM chimalhuacan", "tessellate": -1, "extrude": 0, "visibility": -1 }, "geometry": { "type": "Point", "coordinates": [ -98.868928, 19.4330861, 0.0 ] } },
{ "type": "Feature", "properties": { "Name": "Estadio Universitario Alberto \"Chivo\" Córdova", "tessellate": -1, "extrude": 0, "visibility": -1 }, "geometry": { "type": "Point", "coordinates": [ -99.6762522, 19.2849387, 0.0 ] } },
{ "type": "Feature", "properties": { "Name": "Estadio de Futbol Americano Juan Josafat Pichardo", "tessellate": -1, "extrude": 0, "visibility": -1 }, "geometry": { "type": "Point", "coordinates": [ -99.6576942, 19.2764815, 0.0 ] } },
{ "type": "Feature", "properties": { "Name": "Uni Radio 99.7", "tessellate": -1, "extrude": 0, "visibility": -1 }, "geometry": { "type": "Point", "coordinates": [ -99.6230149, 19.2563974, 0.0 ] } },
{ "type": "Feature", "properties": { "Name": "Ignacio Manuel Altamirano IMA", "tessellate": -1, "extrude": 0, "visibility": -1 }, "geometry": { "type": "Point", "coordinates": [ -99.6017627, 19.2748382, 0.0 ] } },
{ "type": "Feature", "properties": { "Name": "UVM Campus Toluca", "tessellate": -1, "extrude": 0, "visibility": -1 }, "geometry": { "type": "Point", "coordinates": [ -99.6149923, 19.2469556, 0.0 ] } },
{ "type": "Feature", "properties": { "Name": "Oficinas Administrativas UAM-L", "tessellate": -1, "extrude": 0, "visibility": -1 }, "geometry": { "type": "Point", "coordinates": [ -99.51946, 19.286719, 0.0 ] } },
{ "type": "Feature", "properties": { "Name": "Snap Fitness Ceboruco", "tessellate": -1, "extrude": 0, "visibility": -1 }, "geometry": { "type": "Point", "coordinates": [ -99.6401605, 19.2592256, 0.0 ] } },
{ "type": "Feature", "properties": { "Name": "Snap Fitness Plaza El Punto", "tessellate": -1, "extrude": 0, "visibility": -1 }, "geometry": { "type": "Point", "coordinates": [ -99.6316355, 19.3071742, 0.0 ] } },
{ "type": "Feature", "properties": { "Name": "Snap Fitness Santin", "tessellate": -1, "extrude": 0, "visibility": -1 }, "geometry": { "type": "Point", "coordinates": [ -99.5930587, 19.3511836, 0.0 ] } },
{ "type": "Feature", "properties": { "Name": "Snap Fitness Plaza Ojuelos 24\/7", "tessellate": -1, "extrude": 0, "visibility": -1 }, "geometry": { "type": "Point", "coordinates": [ -99.6972954, 19.2887806, 0.0 ] } },
{ "type": "Feature", "properties": { "Name": "Sanatorio México", "tessellate": -1, "extrude": 0, "visibility": -1 }, "geometry": { "type": "Point", "coordinates": [ -99.6456758, 19.2826256, 0.0 ] } },
{ "type": "Feature", "properties": { "Name": "Nuestra Señora del Carmen", "tessellate": -1, "extrude": 0, "visibility": -1 }, "geometry": { "type": "Point", "coordinates": [ -99.6558844, 19.2939774, 0.0 ] } },
{ "type": "Feature", "properties": { "Name": "INEA - Instituto Nacional para la Educación de los Adultos", "tessellate": -1, "extrude": 0, "visibility": -1 }, "geometry": { "type": "Point", "coordinates": [ -99.641678, 19.299098, 0.0 ] } },
{ "type": "Feature", "properties": { "Name": "Patronato de Fomento Educativo en el Estado de México", "tessellate": -1, "extrude": 0, "visibility": -1, "description": "Materiales apra curación<br>Víveres<br>Guantes para maniobra" }, "geometry": { "type": "Point", "coordinates": [ -99.6657683, 19.2762793, 0.0 ] } },
{ "type": "Feature", "properties": { "Name": "Casa SCOUT Toluca", "tessellate": -1, "extrude": 0, "visibility": -1, "description": "20 Sep 3pm a media noche<br>21 Sep 21 y 22 9am a 10pm" }, "geometry": { "type": "Point", "coordinates": [ -99.5988577, 19.2829106, 0.0 ] } },
{ "type": "Feature", "properties": { "Name": "Centro de acopio de Soñar Despierto Toluca", "tessellate": -1, "extrude": 0, "visibility": -1 }, "geometry": { "type": "Point", "coordinates": [ -99.6613728, 19.275453, 0.0 ] } },
{ "type": "Feature", "properties": { "Name": "Fundación Xihmai", "tessellate": -1, "extrude": 0, "visibility": -1 }, "geometry": { "type": "Point", "coordinates": [ -99.6037128, 19.2598232, 0.0 ] } },
{ "type": "Feature", "properties": { "Name": "Centro de Acopio COPEM", "tessellate": -1, "extrude": 0, "visibility": -1 }, "geometry": { "type": "Point", "coordinates": [ -99.663345, 19.281248, 0.0 ] } },
{ "type": "Feature", "properties": { "Name": "CAPITAL JETS - Flymex", "tessellate": -1, "extrude": 0, "visibility": -1, "description": "7222732795" }, "geometry": { "type": "Point", "coordinates": [ -99.5698355, 19.3389479, 0.0 ] } },
{ "type": "Feature", "properties": { "Name": "Instituto Humanista de Psicoterapia Gestalt - IHPG Lomas Verdes", "tessellate": -1, "extrude": 0, "visibility": -1, "description": "53440069" }, "geometry": { "type": "Point", "coordinates": [ -99.2550479, 19.5041344, 0.0 ] } },
{ "type": "Feature", "properties": { "Name": "GOE - Grupo Odontológico Especializado", "tessellate": -1, "extrude": 0, "visibility": -1 }, "geometry": { "type": "Point", "coordinates": [ -99.571407, 19.277201, 0.0 ] } },
{ "type": "Feature", "properties": { "Name": "Grupo Odontológico Especializado", "tessellate": -1, "extrude": 0, "visibility": -1 }, "geometry": { "type": "Point", "coordinates": [ -99.613023, 19.252533, 0.0 ] } },
{ "type": "Feature", "properties": { "Name": "GOE - Grupo Odontológico Especializado", "tessellate": -1, "extrude": 0, "visibility": -1 }, "geometry": { "type": "Point", "coordinates": [ -99.657284, 19.285186, 0.0 ] } },
{ "type": "Feature", "properties": { "Name": "Centro de Formación Deportiva Hernán Cristante", "tessellate": -1, "extrude": 0, "visibility": -1 }, "geometry": { "type": "Point", "coordinates": [ -99.6113449, 19.2624458, 0.0 ] } },
{ "type": "Feature", "properties": { "Name": "Plaza El Castaño", "tessellate": -1, "extrude": 0, "visibility": -1 }, "geometry": { "type": "Point", "coordinates": [ -99.5662487, 19.2621199, 0.0 ] } },
{ "type": "Feature", "properties": { "Name": "Zugga", "tessellate": -1, "extrude": 0, "visibility": -1, "description": "Diclofenaco, antihistamínicos, vendas del número 6, suero oral<br><br>Para tenancingo" }, "geometry": { "type": "Point", "coordinates": [ -99.5659328, 19.2623737, 0.0 ] } },
{ "type": "Feature", "properties": { "Name": "SEDESOL", "tessellate": -1, "extrude": 0, "visibility": -1 }, "geometry": { "type": "Point", "coordinates": [ -99.6503091, 19.2782027, 0.0 ] } },
{ "type": "Feature", "properties": { "Name": "Centro Dinámico Pegaso", "tessellate": -1, "extrude": 0, "visibility": -1 }, "geometry": { "type": "Point", "coordinates": [ -99.5640492, 19.3702436, 0.0 ] } },
{ "type": "Feature", "properties": { "Name": "Xtreme Master Gym Toluca", "tessellate": -1, "extrude": 0, "visibility": -1 }, "geometry": { "type": "Point", "coordinates": [ -99.6424555, 19.2848487, 0.0 ] } },
{ "type": "Feature", "properties": { "Name": "Plantel Lic. Adolfo López Mateos de la Escuela Preparatoria", "tessellate": -1, "extrude": 0, "visibility": -1 }, "geometry": { "type": "Point", "coordinates": [ -99.6572291, 19.2792416, 0.0 ] } },
{ "type": "Feature", "properties": { "Name": "Calvario Metepec", "tessellate": -1, "extrude": 0, "visibility": -1 }, "geometry": { "type": "Point", "coordinates": [ -99.6050763, 19.2508089, 0.0 ] } },
{ "type": "Feature", "properties": { "Name": "CUI Universidad de Ixtlahuaca", "tessellate": -1, "extrude": 0, "visibility": -1 }, "geometry": { "type": "Point", "coordinates": [ -99.7550358, 19.5706007, 0.0 ] } },
{ "type": "Feature", "properties": { "Name": "DIF IXTLAHUACA", "tessellate": -1, "extrude": 0, "visibility": -1 }, "geometry": { "type": "Point", "coordinates": [ -99.7665465, 19.5650574, 0.0 ] } },
{ "type": "Feature", "properties": { "Name": "Jardín Juárez", "tessellate": -1, "extrude": 0, "visibility": -1 }, "geometry": { "type": "Point", "coordinates": [ -99.766911, 19.569242, 0.0 ] } },
{ "type": "Feature", "properties": { "Name": "Presidencia municipal", "tessellate": -1, "extrude": 0, "visibility": -1 }, "geometry": { "type": "Point", "coordinates": [ -99.7690769, 19.5698532, 0.0 ] } },
{ "type": "Feature", "properties": { "Name": "José Ma. Pino Suárez 4", "tessellate": -1, "extrude": 0, "visibility": -1 }, "geometry": { "type": "Point", "coordinates": [ -99.6313315, 19.2845003, 0.0 ] } },
{ "type": "Feature", "properties": { "Name": "Museo Zanbatha", "tessellate": -1, "extrude": 0, "visibility": -1 }, "geometry": { "type": "Point", "coordinates": [ -99.5099587, 19.2863106, 0.0 ] } },
{ "type": "Feature", "properties": { "Name": "Policía Federal de Caminos", "tessellate": -1, "extrude": 0, "visibility": -1 }, "geometry": { "type": "Point", "coordinates": [ -92.9289503, 17.9695694, 0.0 ] } },
{ "type": "Feature", "properties": { "Name": "CAPPDI AC", "tessellate": -1, "extrude": 0, "visibility": -1 }, "geometry": { "type": "Point", "coordinates": [ -99.638877, 19.266637, 0.0 ] } },
{ "type": "Feature", "properties": { "Name": "Casa Espora", "tessellate": -1, "extrude": 0, "visibility": -1 }, "geometry": { "type": "Point", "coordinates": [ -99.6474476, 19.2922666, 0.0 ] } },
{ "type": "Feature", "properties": { "Name": "Banco de Alimentos del Estado de México", "tessellate": -1, "extrude": 0, "visibility": -1 }, "geometry": { "type": "Point", "coordinates": [ -99.6674672, 19.332383, 0.0 ] } },
{ "type": "Feature", "properties": { "Name": "Tecnológico de Monterrey Campus Toluca", "tessellate": -1, "extrude": 0, "visibility": -1 }, "geometry": { "type": "Point", "coordinates": [ -99.7078961, 19.2687639, 0.0 ] } },
{ "type": "Feature", "properties": { "Name": "Dif del Estado de México", "tessellate": -1, "extrude": 0, "visibility": -1 }, "geometry": { "type": "Point", "coordinates": [ -99.6609083, 19.2722408, 0.0 ] } },
{ "type": "Feature", "properties": { "Name": "Cruz Roja", "tessellate": -1, "extrude": 0, "visibility": -1 }, "geometry": { "type": "Point", "coordinates": [ -99.5717379, 19.3326324, 0.0 ] } },
{ "type": "Feature", "properties": { "Name": "DIF Metepec", "tessellate": -1, "extrude": 0, "visibility": -1 }, "geometry": { "type": "Point", "coordinates": [ -99.5963832, 19.2695055, 0.0 ] } },
{ "type": "Feature", "properties": { "Name": "DIF", "tessellate": -1, "extrude": 0, "visibility": -1 }, "geometry": { "type": "Point", "coordinates": [ -99.2171917, 18.9162659, 0.0 ] } },
{ "type": "Feature", "properties": { "Name": "Cuarto Menguante", "tessellate": -1, "extrude": 0, "visibility": -1 }, "geometry": { "type": "Point", "coordinates": [ -99.6007848, 19.2567734, 0.0 ] } },
{ "type": "Feature", "properties": { "Name": "Skydrive Centro De Paracaidismo", "tessellate": -1, "extrude": 0, "visibility": -1 }, "geometry": { "type": "Point", "coordinates": [ -99.2645239, 18.6482878, 0.0 ] } },
{ "type": "Feature", "properties": { "Name": "Av Instituto Politécnico Nacional 2580", "tessellate": -1, "extrude": 0, "visibility": -1 }, "geometry": { "type": "Point", "coordinates": [ -99.125349, 19.5100488, 0.0 ] } },
{ "type": "Feature", "properties": { "Name": "Biblioteca Nacional de Ciencia y Tecnologia.", "tessellate": -1, "extrude": 0, "visibility": -1 }, "geometry": { "type": "Point", "coordinates": [ -99.1334496, 19.4959918, 0.0 ] } },
{ "type": "Feature", "properties": { "Name": "Hábita Green", "tessellate": -1, "extrude": 0, "visibility": -1 }, "geometry": { "type": "Point", "coordinates": [ -99.665826, 19.275893, 0.0 ] } },
{ "type": "Feature", "properties": { "Name": "Rectoría UAEM", "tessellate": -1, "extrude": 0, "visibility": -1 }, "geometry": { "type": "Point", "coordinates": [ -99.6535921, 19.2860993, 0.0 ] } },
{ "type": "Feature", "properties": { "Name": "CENTRO DE ACOPIO JAPEM", "tessellate": -1, "extrude": 0, "visibility": -1 }, "geometry": { "type": "Point", "coordinates": [ -99.6389322, 19.2860831, 0.0 ] } },
{ "type": "Feature", "properties": { "Name": "Centro Cultural Casa Colomos", "tessellate": -1, "extrude": 0, "visibility": -1 }, "geometry": { "type": "Point", "coordinates": [ -103.3907775, 20.7052498, 0.0 ] } },
{ "type": "Feature", "properties": { "Name": "Sábado", "tessellate": -1, "extrude": 0, "visibility": -1 }, "geometry": { "type": "Point", "coordinates": [ -99.6063007, 19.2500223, 0.0 ] } },
{ "type": "Feature", "properties": { "Name": "Av. Gral. Venustiano Carranza 20 Pte. 1103", "tessellate": -1, "extrude": 0, "visibility": -1 }, "geometry": { "type": "Point", "coordinates": [ -99.6619768, 19.2794279, 0.0 ] } },
{ "type": "Feature", "properties": { "Name": "Buhler, S.A. de C.V.", "tessellate": -1, "extrude": 0, "visibility": -1, "description": "ROPA" }, "geometry": { "type": "Point", "coordinates": [ -99.6127367, 19.290588, 0.0 ] } },
{ "type": "Feature", "properties": { "Name": "Librería Imagen", "tessellate": -1, "extrude": 0, "visibility": -1 }, "geometry": { "type": "Point", "coordinates": [ -99.655994, 19.278746, 0.0 ] } },
{ "type": "Feature", "properties": { "Name": "Centro Nacional de las Artes", "tessellate": -1, "extrude": 0, "visibility": -1 }, "geometry": { "type": "Point", "coordinates": [ -99.1409039, 19.3565372, 0.0 ] } },
{ "type": "Feature", "properties": { "Name": "CETIS 54", "tessellate": -1, "extrude": 0, "visibility": -1 }, "geometry": { "type": "Point", "coordinates": [ -99.1536234, 19.3428905, 0.0 ] } },
{ "type": "Feature", "properties": { "Name": "Impala", "tessellate": -1, "extrude": 0, "visibility": -1 }, "geometry": { "type": "Point", "coordinates": [ -99.6577924, 19.2884189, 0.0 ] } },
{ "type": "Feature", "properties": { "Name": "Macadamia Gourmet", "tessellate": -1, "extrude": 0, "visibility": -1 }, "geometry": { "type": "Point", "coordinates": [ -99.6589846, 19.2766033, 0.0 ] } },
{ "type": "Feature", "properties": { "Name": "Fastnutrition", "tessellate": -1, "extrude": 0, "visibility": -1 }, "geometry": { "type": "Point", "coordinates": [ -99.664852, 19.2769356, 0.0 ] } },
{ "type": "Feature", "properties": { "Name": "Casa de la Amistad Rotarios Toluca", "tessellate": -1, "extrude": 0, "visibility": -1 }, "geometry": { "type": "Point", "coordinates": [ -99.648831, 19.273868, 0.0 ] } },
{ "type": "Feature", "properties": { "Name": "Corporativo TUFESA", "tessellate": -1, "extrude": 0, "visibility": -1 }, "geometry": { "type": "Point", "coordinates": [ -109.9283335, 27.4885875, 0.0 ] } },
{ "type": "Feature", "properties": { "Name": "Escuela Nacional de Antropología e Historia", "tessellate": -1, "extrude": 0, "visibility": -1 }, "geometry": { "type": "Point", "coordinates": [ -99.1798404, 19.3023275, 0.0 ] } },
{ "type": "Feature", "properties": { "Name": "Salón las terrazas", "tessellate": -1, "extrude": 0, "visibility": -1 }, "geometry": { "type": "Point", "coordinates": [ -101.2812988, 20.982892, 0.0 ] } },
{ "type": "Feature", "properties": { "Name": "Centro Juvenil Salesiano", "tessellate": -1, "extrude": 0, "visibility": -1 }, "geometry": { "type": "Point", "coordinates": [ -101.3488773, 20.6866345, 0.0 ] } },
{ "type": "Feature", "properties": { "Name": "Terán 250", "tessellate": -1, "extrude": 0, "visibility": -1 }, "geometry": { "type": "Point", "coordinates": [ -101.3504179, 20.6753393, 0.0 ] } },
{ "type": "Feature", "properties": { "Name": "Almirante 203", "tessellate": -1, "extrude": 0, "visibility": -1 }, "geometry": { "type": "Point", "coordinates": [ -101.6537292, 21.1382289, 0.0 ] } },
{ "type": "Feature", "properties": { "Name": "Colegio Salesiano de Don Bosco", "tessellate": -1, "extrude": 0, "visibility": -1 }, "geometry": { "type": "Point", "coordinates": [ -101.7114553, 21.1356755, 0.0 ] } },
{ "type": "Feature", "properties": { "Name": "Edificio COMPLEX", "tessellate": -1, "extrude": 0, "visibility": -1 }, "geometry": { "type": "Point", "coordinates": [ -104.8944679, 21.4903869, 0.0 ] } },
{ "type": "Feature", "properties": { "Name": "Plaza Bicentenario", "tessellate": -1, "extrude": 0, "visibility": -1 }, "geometry": { "type": "Point", "coordinates": [ -104.893332, 21.507093, 0.0 ] } },
{ "type": "Feature", "properties": { "Name": "Centro de Acopio Campo Marte", "tessellate": -1, "extrude": 0, "visibility": -1 }, "geometry": { "type": "Point", "coordinates": [ -99.197338, 19.424607, 0.0 ] } },
{ "type": "Feature", "properties": { "Name": "Cruz Roja", "tessellate": -1, "extrude": 0, "visibility": -1 }, "geometry": { "type": "Point", "coordinates": [ -99.208989, 19.437748, 0.0 ] } },
{ "type": "Feature", "properties": { "Name": "BEYORK", "tessellate": -1, "extrude": 0, "visibility": -1 }, "geometry": { "type": "Point", "coordinates": [ -99.193822, 19.339201, 0.0 ] } },
{ "type": "Feature", "properties": { "Name": "Avenida San Fernando 160", "tessellate": -1, "extrude": 0, "visibility": -1 }, "geometry": { "type": "Point", "coordinates": [ -99.1671411, 19.2920558, 0.0 ] } },
{ "type": "Feature", "properties": { "Name": "PROCURADURIA AMBIENTAL Y DEL ORDENAMIENTO TERRITORIAL DEL DF. PAOT", "tessellate": -1, "extrude": 0, "visibility": -1 }, "geometry": { "type": "Point", "coordinates": [ -99.1644963, 19.4117767, 0.0 ] } },
{ "type": "Feature", "properties": { "Name": "Palacio Municipal de Zapopan", "tessellate": -1, "extrude": 0, "visibility": -1 }, "geometry": { "type": "Point", "coordinates": [ -103.389688, 20.721796, 0.0 ] } },
{ "type": "Feature", "properties": { "Name": "DIF Zapopan", "tessellate": -1, "extrude": 0, "visibility": -1 }, "geometry": { "type": "Point", "coordinates": [ -103.401333, 20.735206, 0.0 ] } },
{ "type": "Feature", "properties": { "Name": "Unidad Administrativa Las Águilas", "tessellate": -1, "extrude": 0, "visibility": -1 }, "geometry": { "type": "Point", "coordinates": [ -103.416907, 20.631182, 0.0 ] } },
{ "type": "Feature", "properties": { "Name": "Cruz Verde Zapopan Norte", "tessellate": -1, "extrude": 0, "visibility": -1 }, "geometry": { "type": "Point", "coordinates": [ -103.383961, 20.729816, 0.0 ] } },
{ "type": "Feature", "properties": { "Name": "Cruz Verde Sur Zapopan Las Águilas", "tessellate": -1, "extrude": 0, "visibility": -1 }, "geometry": { "type": "Point", "coordinates": [ -103.416095, 20.63234, 0.0 ] } },
{ "type": "Feature", "properties": { "Name": "Cruz Verde Santa Lucía", "tessellate": -1, "extrude": 0, "visibility": -1 }, "geometry": { "type": "Point", "coordinates": [ -103.496007, 20.798973, 0.0 ] } },
{ "type": "Feature", "properties": { "Name": "Cruz Verde Federalismo", "tessellate": -1, "extrude": 0, "visibility": -1, "description": "Luis Quintero #750<br>Col. Quinta Federaslimo" }, "geometry": { "type": "Point", "coordinates": [ -103.350465, 20.734756, 0.0 ] } },
{ "type": "Feature", "properties": { "Name": "Comisaria General De Seguridad Publica Zapopan", "tessellate": -1, "extrude": 0, "visibility": -1 }, "geometry": { "type": "Point", "coordinates": [ -103.3853, 20.728848, 0.0 ] } },
{ "type": "Feature", "properties": { "Name": "Sector I", "tessellate": -1, "extrude": 0, "visibility": -1, "description": "Av. Federalismo #1000, Auditorio, Zapopan, Jalisco" }, "geometry": { "type": "Point", "coordinates": [ -103.349416, 20.738009, 0.0 ] } },
{ "type": "Feature", "properties": { "Name": "Sector ll", "tessellate": -1, "extrude": 0, "visibility": -1, "description": "Av. Guadalupe cruce con Periférico, Chapalita Inn, Zapopan, Jalisco." }, "geometry": { "type": "Point", "coordinates": [ -103.447229, 20.659037, 0.0 ] } },
{ "type": "Feature", "properties": { "Name": "Sector lll", "tessellate": -1, "extrude": 0, "visibility": -1, "description": "Calle Cruz del Sur cruce Av. López Mateos, La Calma, Zapopan, Jalisco" }, "geometry": { "type": "Point", "coordinates": [ -103.415818, 20.632526, 0.0 ] } },
{ "type": "Feature", "properties": { "Name": "Sector IV", "tessellate": -1, "extrude": 0, "visibility": -1, "description": "Calle Melchor Ocampo cruce Calle Casillas, Tesistán, Zapopan, Jalisco" }, "geometry": { "type": "Point", "coordinates": [ -103.478029, 20.80103, 0.0 ] } },
{ "type": "Feature", "properties": { "Name": "Sector V", "tessellate": -1, "extrude": 0, "visibility": -1, "description": "Calle Valle de Atemajac cruce Valle de Zapopan, Valle de los Molinos, Zapopan, Jalisco" }, "geometry": { "type": "Point", "coordinates": [ -103.425451, 20.853591, 0.0 ] } },
{ "type": "Feature", "properties": { "Name": "Hospital General De Zapopan", "tessellate": -1, "extrude": 0, "visibility": -1 }, "geometry": { "type": "Point", "coordinates": [ -103.396167, 20.724229, 0.0 ] } },
{ "type": "Feature", "properties": { "Name": "Dirección de Programas Sociales", "tessellate": -1, "extrude": 0, "visibility": -1, "description": "Andador María Cristina Peña #256, Col. La Huerta, C.P. 45100, Zapopan, Jal." }, "geometry": { "type": "Point", "coordinates": [ -103.39388, 20.721345, 0.0 ] } },
{ "type": "Feature", "properties": { "Name": "Paraísos del Colli", "tessellate": -1, "extrude": 0, "visibility": -1, "description": "Prov Av. El Colli No. 1050" }, "geometry": { "type": "Point", "coordinates": [ -103.450203, 20.649019, 0.0 ] } },
{ "type": "Feature", "properties": { "Name": "Venta del Astillero", "tessellate": -1, "extrude": 0, "visibility": -1, "description": "Carretera a Nogales No. 80" }, "geometry": { "type": "Point", "coordinates": [ -103.47612, 20.713352, 0.0 ] } },
{ "type": "Feature", "properties": { "Name": "Santa Ana Tepetitlán", "tessellate": -1, "extrude": 0, "visibility": -1, "description": "Hidalgo No. 82" }, "geometry": { "type": "Point", "coordinates": [ -103.456335, 20.619771, 0.0 ] } },
{ "type": "Feature", "properties": { "Name": "El Batán", "tessellate": -1, "extrude": 0, "visibility": -1, "description": "Álvaro Obregón No. 60" }, "geometry": { "type": "Point", "coordinates": [ -103.344163, 20.722216, 0.0 ] } },
{ "type": "Feature", "properties": { "Name": "Nextipac", "tessellate": -1, "extrude": 0, "visibility": -1, "description": "16 de Septiembre No. 51" }, "geometry": { "type": "Point", "coordinates": [ -103.525951, 20.767291, 0.0 ] } },
{ "type": "Feature", "properties": { "Name": "Santa Lucía", "tessellate": -1, "extrude": 0, "visibility": -1, "description": "Manuel M. Dieguez No. 100" }, "geometry": { "type": "Point", "coordinates": [ -103.491725, 20.802359, 0.0 ] } },
{ "type": "Feature", "properties": { "Name": "El Colli", "tessellate": -1, "extrude": 0, "visibility": -1, "description": "Volcán de Fuego No. 2525" }, "geometry": { "type": "Point", "coordinates": [ -103.424916, 20.641752, 0.0 ] } },
{ "type": "Feature", "properties": { "Name": "Agua Blanca", "tessellate": -1, "extrude": 0, "visibility": -1, "description": "Álvaro Obregón S\/N" }, "geometry": { "type": "Point", "coordinates": [ -103.365203, 20.751352, 0.0 ] } },
{ "type": "Feature", "properties": { "Name": "Santa María del Pueblito", "tessellate": -1, "extrude": 0, "visibility": -1, "description": "Guadalupe Victoria No. 4655" }, "geometry": { "type": "Point", "coordinates": [ -103.436859, 20.679203, 0.0 ] } },
{ "type": "Feature", "properties": { "Name": "Jardines del Ixtépete", "tessellate": -1, "extrude": 0, "visibility": -1, "description": "Prol. Av. Tepeyac No. 1440" }, "geometry": { "type": "Point", "coordinates": [ -103.451394, 20.652377, 0.0 ] } },
{ "type": "Feature", "properties": { "Name": "Atemajac", "tessellate": -1, "extrude": 0, "visibility": -1, "description": "Hidalgo No. 10" }, "geometry": { "type": "Point", "coordinates": [ -103.355421, 20.719781, 0.0 ] } },
{ "type": "Feature", "properties": { "Name": "El Briseño", "tessellate": -1, "extrude": 0, "visibility": -1, "description": "Santa Ana No. 132" }, "geometry": { "type": "Point", "coordinates": [ -103.435031, 20.621311, 0.0 ] } },
{ "type": "Feature", "properties": { "Name": "Vista Hermosa", "tessellate": -1, "extrude": 0, "visibility": -1, "description": "Vista Selene S\/N" }, "geometry": { "type": "Point", "coordinates": [ -103.3329, 20.758969, 0.0 ] } },
{ "type": "Feature", "properties": { "Name": "Villas de Guadalupe", "tessellate": -1, "extrude": 0, "visibility": -1, "description": "Tomás Nava No. 99" }, "geometry": { "type": "Point", "coordinates": [ -103.348749, 20.754718, 0.0 ] } },
{ "type": "Feature", "properties": { "Name": "Jardines de Nuevo México", "tessellate": -1, "extrude": 0, "visibility": -1, "description": "Octava Oriente No. 445" }, "geometry": { "type": "Point", "coordinates": [ -103.443816, 20.763182, 0.0 ] } },
{ "type": "Feature", "properties": { "Name": "Arenales Tapatíos", "tessellate": -1, "extrude": 0, "visibility": -1, "description": "Francisco y Madero S\/N" }, "geometry": { "type": "Point", "coordinates": [ -103.45534, 20.629011, 0.0 ] } },
{ "type": "Feature", "properties": { "Name": "Ejido Copalita", "tessellate": -1, "extrude": 0, "visibility": -1, "description": "Emiliano Zapata No. 270" }, "geometry": { "type": "Point", "coordinates": [ -103.447356, 20.830676, 0.0 ] } },
{ "type": "Feature", "properties": { "Name": "Parques del Auditorio ", "tessellate": -1, "extrude": 0, "visibility": -1, "description": "González Gallo No. 4110" }, "geometry": { "type": "Point", "coordinates": [ -103.352782, 20.739367, 0.0 ] } },
{ "type": "Feature", "properties": { "Name": "Miramar", "tessellate": -1, "extrude": 0, "visibility": -1, "description": "Puerto Matamoros No. 2990" }, "geometry": { "type": "Point", "coordinates": [ -103.449977, 20.637813, 0.0 ] } },
{ "type": "Feature", "properties": { "Name": "Palacio Municipal de Guadalajara", "tessellate": -1, "extrude": 0, "visibility": -1, "description": "Hidalgo 400, Centro Histórico." }, "geometry": { "type": "Point", "coordinates": [ -103.347852, 20.677509, 0.0 ] } },
{ "type": "Feature", "properties": { "Name": "Centro de la Amistad Internacional", "tessellate": -1, "extrude": 0, "visibility": -1, "description": "Calle Eulogio Parra #2539, colonia Ladrón de Guevara." }, "geometry": { "type": "Point", "coordinates": [ -103.381053, 20.68595, 0.0 ] } },
{ "type": "Feature", "properties": { "Name": "Base 1 de Bomberos", "tessellate": -1, "extrude": 0, "visibility": -1, "description": "Av. Del Campesino #1097, colonia Moderna." }, "geometry": { "type": "Point", "coordinates": [ -103.352922, 20.660715, 0.0 ] } },
{ "type": "Feature", "properties": { "Name": "Base 2 de Bomberos", "tessellate": -1, "extrude": 0, "visibility": -1, "description": "Calle Félix Palavicini #1995, colonia Miraflores." }, "geometry": { "type": "Point", "coordinates": [ -103.346516, 20.703705, 0.0 ] } },
{ "type": "Feature", "properties": { "Name": "Base 3 de Bomberos", "tessellate": -1, "extrude": 0, "visibility": -1, "description": "Av. López de Legaspi #1355, colonia 18 de Marzo." }, "geometry": { "type": "Point", "coordinates": [ -103.369358, 20.635822, 0.0 ] } },
{ "type": "Feature", "properties": { "Name": "Dirección de Participación Ciudadana", "tessellate": -1, "extrude": 0, "visibility": -1, "description": "Calle Rio Reforma 1880, colonia Álamo Industrial." }, "geometry": { "type": "Point", "coordinates": [ -103.331866, 20.631474, 0.0 ] } },
{ "type": "Feature", "properties": { "Name": "Cruz Verde Mario Rivas Souza", "tessellate": -1, "extrude": 0, "visibility": -1, "description": "Periférico Norte Manuel M. Morín 430, Col. Santa Isabel." }, "geometry": { "type": "Point", "coordinates": [ -103.311267, 20.717777, 0.0 ] } },
{ "type": "Feature", "properties": { "Name": "Cruz Verde Francisco Ruíz Sánchez", "tessellate": -1, "extrude": 0, "visibility": -1, "description": "Antonio Tello 215, entre calle 52 y Medrano, Col. Medrano." }, "geometry": { "type": "Point", "coordinates": [ -103.318793, 20.663124, 0.0 ] } },
{ "type": "Feature", "properties": { "Name": "Cruz Verde Leonardo Oliva.", "tessellate": -1, "extrude": 0, "visibility": -1, "description": "Av. Cruz del Sur 2592 esq. Islas Antillas, Col. Jardines de la Cruz." }, "geometry": { "type": "Point", "coordinates": [ -103.38205, 20.646183, 0.0 ] } },
{ "type": "Feature", "properties": { "Name": "InMujeres Guadalajara", "tessellate": -1, "extrude": 0, "visibility": -1, "description": "calle Mitla #386, colonia Monumental." }, "geometry": { "type": "Point", "coordinates": [ -103.322275, 20.699114, 0.0 ] } },
{ "type": "Feature", "properties": { "Name": "Parque Agua Azul", "tessellate": -1, "extrude": 0, "visibility": -1, "description": "Calzada Independencia Sur #973, colonia La Aurora." }, "geometry": { "type": "Point", "coordinates": [ -103.349451, 20.660855, 0.0 ] } },
{ "type": "Feature", "properties": { "Name": "Base 4 de Bomberos", "tessellate": -1, "extrude": 0, "visibility": -1, "description": "Calle San Andrés #5, colonia San Andrés." }, "geometry": { "type": "Point", "coordinates": [ -103.297244, 20.661071, 0.0 ] } },
{ "type": "Feature", "properties": { "Name": "Base 5 de Bomberos", "tessellate": -1, "extrude": 0, "visibility": -1, "description": "Periférico Norte #460, colonia Jardines de Santa Isabel." }, "geometry": { "type": "Point", "coordinates": [ -103.310999, 20.71768, 0.0 ] } },
{ "type": "Feature", "properties": { "Name": "Coordinación de Gestión Integral de la Ciudad", "tessellate": -1, "extrude": 0, "visibility": -1, "description": "Calle Marsella 75, colonia Americana." }, "geometry": { "type": "Point", "coordinates": [ -103.370557, 20.675087, 0.0 ] } },
{ "type": "Feature", "properties": { "Name": "Cruz Verde Jesús Delgadillo Araujo.", "tessellate": -1, "extrude": 0, "visibility": -1, "description": "Mariano Bárcenas 997, Col. Alcalde Barranquitas." }, "geometry": { "type": "Point", "coordinates": [ -103.352031, 20.690176, 0.0 ] } },
{ "type": "Feature", "properties": { "Name": "Cruz Verde Ernesto Arias González", "tessellate": -1, "extrude": 0, "visibility": -1, "description": "Los Ángeles y Analco, Col. Las Conchas." }, "geometry": { "type": "Point", "coordinates": [ -103.342901, 20.662286, 0.0 ] } },
{ "type": "Feature", "properties": { "Name": "Centro Administrativo Tlajomulco", "tessellate": -1, "extrude": 0, "visibility": -1, "description": "Higuera No.70 Colonia Centro, Tlajomulco de Zúñiga." }, "geometry": { "type": "Point", "coordinates": [ -103.441504, 20.475642, 0.0 ] } },
{ "type": "Feature", "properties": { "Name": "Vía Recreactiva.", "tessellate": -1, "extrude": 0, "visibility": -1, "description": "Glorieta Minerva (Domingo 24 septiembre de 8:30 a.m. a 1:00 p.m.)." }, "geometry": { "type": "Point", "coordinates": [ -103.386937, 20.674364, 0.0 ] } },
{ "type": "Feature", "properties": { "Name": "Centro de Desarrollo Comunitario DIF La Calera", "tessellate": -1, "extrude": 0, "visibility": -1, "description": "Calle Juárez No. 20 entre Eduardo Espinoza y Av. Chapala" }, "geometry": { "type": "Point", "coordinates": [ -103.252151, 20.449492, 0.0 ] } },
{ "type": "Feature", "properties": { "Name": "DIF Tlajomulco", "tessellate": -1, "extrude": 0, "visibility": -1, "description": "Calle Nicolás bravo #6B" }, "geometry": { "type": "Point", "coordinates": [ -103.451326, 20.474738, 0.0 ] } },
{ "type": "Feature", "properties": { "Name": "Servicios Médicos Municipales, corredor Chapala", "tessellate": -1, "extrude": 0, "visibility": -1, "description": "Av. Aurora Boreal s\/n, sobre Carretera a Chapala, Av. Aurora Boreal S\/N, Paseo de los Agaves, El Capulín." }, "geometry": { "type": "Point", "coordinates": [ -103.278222, 20.473979, 0.0 ] } },
{ "type": "Feature", "properties": { "Name": "Servicios Médicos Municipales Zona Valle.", "tessellate": -1, "extrude": 0, "visibility": -1, "description": "Av. Concepción 115, Centro, Santa Anita, Tlajomulco." }, "geometry": { "type": "Point", "coordinates": [ -103.377249, 20.52921, 0.0 ] } },
{ "type": "Feature", "properties": { "Name": "Servicios Médicos Municipales Tlajomulco Pedro Parra.", "tessellate": -1, "extrude": 0, "visibility": -1, "description": "Pedro Parra SN, Centro, 45640 Tlajomulco de Zúñiga, Jal., México" }, "geometry": { "type": "Point", "coordinates": [ -103.453322, 20.480185, 0.0 ] } },
{ "type": "Feature", "properties": { "Name": "Centro de Desarrollo Comunitario, San Agustín. ", "tessellate": -1, "extrude": 0, "visibility": -1, "description": "Zaragoza No.80, Tlajomulco." }, "geometry": { "type": "Point", "coordinates": [ -103.467071, 20.546189, 0.0 ] } },
{ "type": "Feature", "properties": { "Name": "Centro de Desarrollo Comunitario DIF La Tijera", "tessellate": -1, "extrude": 0, "visibility": -1, "description": "Crisantemo NO.  2, Tulipanes, Tlajomulco." }, "geometry": { "type": "Point", "coordinates": [ -103.431945, 20.583969, 0.0 ] } },
{ "type": "Feature", "properties": { "Name": "Centro de Desarrollo Comunitario DIF, San Sebatián", "tessellate": -1, "extrude": 0, "visibility": -1, "description": "Calle Federalismo No. 40 entre 20 de Enero y Av. Central." }, "geometry": { "type": "Point", "coordinates": [ -103.435861, 20.529441, 0.0 ] } },
{ "type": "Feature", "properties": { "Name": "Centro de Desarrollo Comunitario DIF, Chulavista", "tessellate": -1, "extrude": 0, "visibility": -1, "description": "Sierra de Chapultepec\tS\/N\tCerro de la Estrella y Cerro santo Tomas, Chulavista." }, "geometry": { "type": "Point", "coordinates": [ -103.363876, 20.504612, 0.0 ] } },
{ "type": "Feature", "properties": { "Name": "Centro de Desarrollo Comunitario DIF Valle Dorado", "tessellate": -1, "extrude": 0, "visibility": -1, "description": "Av. Valle Dorado s\/n<br>Colonia Valle Dorado<br>Tlajomulco de Zúñiga, Jal." }, "geometry": { "type": "Point", "coordinates": [ -103.360362, 20.523704, 0.0 ] } },
{ "type": "Feature", "properties": { "Name": "Congreso de Jalisco", "tessellate": -1, "extrude": 0, "visibility": -1, "description": "Hidalgo No. 222" }, "geometry": { "type": "Point", "coordinates": [ -103.345348, 20.677447, 0.0 ] } },
{ "type": "Feature", "properties": { "Name": "Casa Ciudadana", "tessellate": -1, "extrude": 0, "visibility": -1, "description": "Av. La Paz No. 1901" }, "geometry": { "type": "Point", "coordinates": [ -103.366596, 20.672333, 0.0 ] } },
{ "type": "Feature", "properties": { "Name": "Cruz Roja Mexicana", "tessellate": -1, "extrude": 0, "visibility": -1, "description": "Calle San Felipe No. 7 <br>Zona Centro" }, "geometry": { "type": "Point", "coordinates": [ -103.34193, 20.679456, 0.0 ] } },
{ "type": "Feature", "properties": { "Name": "Hospital Civil Guadalajara \"Dr Juan I. Menchaca\"", "tessellate": -1, "extrude": 0, "visibility": -1, "description": "Salvador Quevedo y Zubieta No. 876" }, "geometry": { "type": "Point", "coordinates": [ -103.334063, 20.685778, 0.0 ] } },
{ "type": "Feature", "properties": { "Name": "Museo Trompo Mágico", "tessellate": -1, "extrude": 0, "visibility": -1, "description": "Av. Central Guillermo Gonzalez Camarena No. 750" }, "geometry": { "type": "Point", "coordinates": [ -103.430394, 20.722797, 0.0 ] } },
{ "type": "Feature", "properties": { "Name": "Campanario", "tessellate": -1, "extrude": 0, "visibility": -1, "description": "Av. El Campanario No. 2659" }, "geometry": { "type": "Point", "coordinates": [ -103.437496, 20.592885, 0.0 ] } }
]
}
