{"type":"FeatureCollection","features":[{"type":"Feature","geometry":{"type":"Point","coordinates":[-99.1584782,19.428193,0]},"properties":{"name":"Cobrec","description":"Ya se llevó  cabo´una inspección que avala la seguridad de las instalaciones"}},{"type":"Feature","geometry":{"type":"Point","coordinates":[-99.1746613,19.4206992,0]},"properties":{"name":"Megatravel México","description":"Parece ser el día de ayer (26 sept) acudieron de la secretaria del trabajo a la empresa pero del Pizarrón de la entrada quitaron las letras de le empresa y los pisos en los que laboramos ya que nos estuvieron escondiendo cerraron las puertas de los pisos 4, 5 y 6 quiero suponer para decir que no estamos laborando ahí"}},{"type":"Feature","geometry":{"type":"Point","coordinates":[-99.1859382,19.296722,0]},"properties":{"name":"Grupo Salinas","description":"En el trayecto de la semana se comenzaron a resanar las grietas para hacernos pensar que todo está bien, pero no es así, los daños fueron profundos y la infraestructura es un peligro para todos los que laboramos ahí."}},{"type":"Feature","geometry":{"type":"Point","coordinates":[-99.1558036,19.3698509,0]},"properties":{"name":"IMSS Hospital General de Zona 1A \"Venados\"","description":"Centro visitado por el equipo. Recogimos testimonios sobre los daños.<br><br>Testimonio: Amenazas sobre llevar a relaciones laborales a quien no quiera trabajar a pesar de que el edificio está mal dicen que hay un dictamen pero no lo quieren enseñar"}},{"type":"Feature","geometry":{"type":"Point","coordinates":[-99.1491222,19.2901399,0]},"properties":{"name":"Instituto Nacional de Rehabilitación Luis Guillermo Ibarra Ibarra","description":"Director de la institución autoriza el resanado de las grietas para ocultar daños antes de la visita de protección civil."}},{"type":"Feature","geometry":{"type":"Point","coordinates":[-99.1642818,19.3935792,0]},"properties":{"name":"TKM Customer Solutions","description":"Centro de trabajo visitado por el equipo. Recogimos testimonios de los daños.<br><br>Empresa obliga a trabajar a operadores telefónicos"}},{"type":"Feature","geometry":{"type":"Point","coordinates":[-99.161767,19.4182827,0]},"properties":{"name":"Geller Abogados Mexico","description":"Hay daños en las instalaciones. La empresa pidió regresar a laborar sin mostrar documentación que acredite que no hay riesgos"}},{"type":"Feature","geometry":{"type":"Point","coordinates":[-99.1876772,19.3986496,0]},"properties":{"name":"Ropa Alta Calidad S.A. de C.V.","description":"Empresa obliga a los trabajadores a volver a sus labores pese a que no han verificado la seguridad del inmueble"}},{"type":"Feature","geometry":{"type":"Point","coordinates":[-99.1359514,19.4305254,0]},"properties":{"name":"Inbursa Call Center","description":"Sitio visitado por el equipo. Recogimos testimonios de los daños"}},{"type":"Feature","geometry":{"type":"Point","coordinates":[-99.137956,19.4232062,0]},"properties":{"name":"Tribunal Superior de Justicia 15 Penal De Delitos No Graves","description":"Mic Mac, empresa subcontratada para labores de limpieza obliga a trabajadoras a laborar en condiciones de riesgo"}},{"type":"Feature","geometry":{"type":"Point","coordinates":[-99.1872545,19.3015328,0]},"properties":{"name":"Grupo ADNA","description":"Edificio con grietas, elevador inclinado, la empresa cubre las grietas"}},{"type":"Feature","geometry":{"type":"Point","coordinates":[-99.1480549,19.382619,0]},"properties":{"name":"Grupo NACH","description":"Sitio visitado por el equipo. Recogimos testimonios de los daños<br><br>Call Center de cobranza subcontratado por Grupo Salinas. Las instalaciones no han sido revisadas. <br><br>El edificio no cuenta con las medidas de seguridad adecuadas y tampoco ha ido protección civil a revisarlo."}},{"type":"Feature","geometry":{"type":"Point","coordinates":[-99.1369261,19.4220665,0]},"properties":{"name":"Tribunal Federal de Conciliación y Arbitraje","description":"Reanuda labores el próximo martes a pesar de los graves daños en el edificio.<br>http://www.eluniversal.com.mx/periodismo-de-investigacion/denuncian-trabajadores-de-conciliacion-y-arbitraje-que-son-obligados#.WcPxmwIh_Hk.facebook Es un edificio que por medio de edicto en 1989 se ordeno su demolición y tiene siete pisos más de los autorizados según la página de SEDUVI autorizado como para uso habitación, siendo utilizado por aproximadamente 1000 trabajadores más dos pisos de estacionamientos de automóviles e innumerables usuarios, siendo incluso un edificio que no puede desalojarse de manera eficiente por la cantidad de personas que trabajan y hacen uso de las instalaciones. Los trabajadores pedimos ser reubicados a un lugar seguro donde no peligre nuestras vidas."}},{"type":"Feature","geometry":{"type":"Point","coordinates":[-99.21832,19.324049,0]},"properties":{"name":"Administración Ventura, S.A. de C.V.","description":""}},{"type":"Feature","geometry":{"type":"Point","coordinates":[-99.122773,19.375162,0]},"properties":{"name":"ELAESI- Escuela Latinoamericana de Educación en Salud Integrativa","description":"Testimonio 1: El Dr. Francisco Aedo Santos que es el director de dicha escuela un día después del sismo llevó a un ingeniero que nunca se identificó y dijo que el edificio estaba óptimo para trabajar, el día 21 nuevamente llevo otro ingeniero que el decia que era de la Universidad de Stanford pero nuevamente nunca nos mostró un documento oficial que lo avalará y también dijo que el edificio estaba bien que solo necesitaba algunas reparaciones, horas después acudió la policía y personal de protección civil solicitado por los mismos empleados ante esto el Dr. Aedo se molesto y reunio a su personal y comento que se habían quedado sin patrimonio laboral. Lo que determino protección civil es que el edificio no tiene daño estructural pero que si requiere reparaciones en todos los pisos y que los unicos que podian realizar estas reparaciones era personal capacitado. Por último el día de hoy acudieron la mayoría de sus empleados para platicar del tema y se podía apreciar que el Dr. Aedo como algunos empleados estaban dentro del edificio haciendo reparaciones                                             Testimonio 2: Escuela obliga al personal a que se presente en condiciones inseguras. No presenta peritaje autorizado  por alguna autoridad correspondiente.Los trabajadores son despedidos injustificadamente por parte del Director de la escuela: Francisco Aedo"}},{"type":"Feature","geometry":{"type":"Point","coordinates":[-99.1473621,19.424976,0]},"properties":{"name":"PGJ DF","description":"Edificio presenta daños en muros, pisos y techos, se reporta la separación de los edificios. Mobiliario dañado, no se presenta peritaje oficial de Protección civil."}},{"type":"Feature","geometry":{"type":"Point","coordinates":[-99.1761813,19.3642394,0]},"properties":{"name":"Edificio Corporativo Citibanamex","description":"Se reportan daños en las instalaciones. Los edificios no han sido revisados"}},{"type":"Feature","geometry":{"type":"Point","coordinates":[-99.1661978,19.4333785,0]},"properties":{"name":"SEP","description":"Autoridades señalan que mañana reanudan labores. Hay grietas en el edificio y no ha sido inspeccionado."}},{"type":"Feature","geometry":{"type":"Point","coordinates":[-99.1662471,19.4328931,0]},"properties":{"name":"SEP","description":"Autoridades señalan que mañana reanudan labores. Hay grietas en el edificio y no ha sido inspeccionado."}},{"type":"Feature","geometry":{"type":"Point","coordinates":[-99.1731669,19.376435,0]},"properties":{"name":"Eficasia","description":"Empresa subcontratada por el IMSS. Obliga a los trabajadores a atender llamadas telefónicas."}},{"type":"Feature","geometry":{"type":"Point","coordinates":[-99.1674410551786,19.4350808681473,0]},"properties":{"name":"Telmex - Parque Vía","description":"Testimonios: El daño más grave está en el estacionamiento sobre villalongin.<br><br>Muestran reportes de \"especialistas\" que sólo ellos conocen. Dicen que el edificio tiene un sensor de daños que sólo lo tienen 10 edificios en CDMX. Como son grupo Carso y tienen constructoras, se creen mucho y no dejan que protección civil de una revisión de confianza para los empleados. <br><br>Existen incluso fotografías circulando en las redes sociales. Yo soy trabajador de la empresa, y nos informaron que no hay daño alguno cuando en uno de los edificios hay pisos desmoronados y muros y escaleras a punto de quebrarse mientras que en el otro ya se han quebrado.<br><br>El inmueble fue valorado por personal \"contratado\" y del mismo grupo Carso pero no han presentado la documentación probatorio de seguridad del edificio avalado por la STPS y Protección Civil.<br><br>Yo laboraba ahi, al día de hoy la empresa ya emitio el certificado de que el edifico estaba en buen estado, PERO justo un día después del terremoto del 19/09 algunos de mis ex compañeros fueron obligados a ir a ese edificio (piso 12, ala norte) ANTES DE QUE EL CERTIFICADO DE SEGURIDAD FUERA EMITIDO. <br> Sé que ya no es donde laboro, pero me indignaron mucho las decisiones de mis ex jefes que pudieron afectar a mi pareja y a mis amigos.<br><br>Fracturas estructurales en todo el edificio, llevaron a un perito que certificó con imágenes falsas sacadas de internet, ya resanaron todos los daños, tenemos imágenes de todo y la gerente de rh pilar marmolejo dijo que si no íbamos seríamos despedido solo personal de confianza ya que sindicato decidió no entrar por seguridad"}},{"type":"Feature","geometry":{"type":"Point","coordinates":[-99.1527171,19.4099388,0]},"properties":{"name":"Centro Médico Nacional Siglo XXI","description":"Daños en las instalaciones, sin peritaje. La evaluación fue hecha por el departamento interno de conservación, no ha sido revisado de manera oficial por protección civil."}},{"type":"Feature","geometry":{"type":"Point","coordinates":[-99.161245,19.429509,0]},"properties":{"name":"Escuela Bancaria y Comercial - Campus Ciudad de México","description":"El edificio presenta daños visibles. La administración resana grietas antes de la inspección de protección civil.  El próximo lunes inician las clases.<br><br>No dejaron entrar a la STPS, ADEMÁS PROTECCIÓN CIVIL AÚN NO EVALÚA EL EDIFICO, según el edificio fue evaluado por personas particulares. Un edifico está hundido y toda esta semana han tenido a la gente de mantenimiento y limpieza resanando los daños."}},{"type":"Feature","geometry":{"type":"Point","coordinates":[-99.140751,19.4182787,0]},"properties":{"name":"Las Nuevas Galías","description":"Sitio visitado por el equipo. Recogimos testimonios de los daños<br><br>Restaurante en Edificio inclinado, con daños estructurales visibles internamente desde el primer piso. "}},{"type":"Feature","geometry":{"type":"Point","coordinates":[-99.2067616,19.4292239,0]},"properties":{"name":"WeWork Montes Urales","description":"Empresa que ya recibió visita de inspección del trabajo."}},{"type":"Feature","geometry":{"type":"Point","coordinates":[-99.0785285,19.380908,0]},"properties":{"name":"Cuadritos Logistica Mexico","description":"Sitio visitado por el equipo. Recogimos testimonios de los daños"}},{"type":"Feature","geometry":{"type":"Point","coordinates":[-99.1427472,19.4265145,0]},"properties":{"name":"Av Arcos de Belén 10","description":"Sitio visitado por el equipo. Recogimos testimonios de los daños<br><br>Edificio de cristal con daños internos, en escales y descansos. Daños no visibles a simple vista, revisar escaleras internas."}},{"type":"Feature","geometry":{"type":"Point","coordinates":[-99.1611561,19.3641605,0]},"properties":{"name":"City Towers","description":"Sitio visitado por el equipo. No pudimos conversar con trabajadores en el sitio. No hay daños visibles"}},{"type":"Feature","geometry":{"type":"Point","coordinates":[-99.1493772,19.392323,0]},"properties":{"name":"A.E.A. proyectos e instalaciones s.a. de c.v.","description":"Centro de trabajo visitado por el equipo. Recogimos testimonios de los daños.<br><br>Lugar con daños en muros y techos, no han parado labores desde el sismo, sin revisión por parte de protección civil. "}},{"type":"Feature","geometry":{"type":"Point","coordinates":[-99.1115797,19.4056843,0]},"properties":{"name":"ADSC Distrito Federal \"3\" Oriente","description":"Edificio con grietas en muros. DESDE EL JUEVES NOS OBLIGARON A ENTRAR CON AMENAZAS LIS ADMON"}},{"type":"Feature","geometry":{"type":"Point","coordinates":[-99.1262063,19.3935667,0]},"properties":{"name":"Iztacalco Motors","description":"La compañía citó a los trabajadores desde el 20 de septiembre aunque los tuvo sin actividades"}},{"type":"Feature","geometry":{"type":"Point","coordinates":[-99.1711683,19.4260852,0]},"properties":{"name":"Paseo de la Reforma 403","description":"Piso 10, Droguería y farmacéutica del globo. Lugar reportado con daños en muros, sin revisión de protección civil"}},{"type":"Feature","geometry":{"type":"Point","coordinates":[-99.1314435,19.4289646,0]},"properties":{"name":"Gamuza","description":"Av. República de El Salvador 142, local 3<br><br>Centro de trabajo que no ha sido inspeccionado"}},{"type":"Feature","geometry":{"type":"Point","coordinates":[-99.1384845,19.4320656,0]},"properties":{"name":"Telvista","description":"Sitio visitado por el equipo. Recogimos testimonios de los daños<br><br>Testimonios: Por favor necesitamos de su ayuda.<br><br>La empresa a realizado un esfuerzo por cubrir los daños de la edificación, se proporciono un supuesto dictamen por parte de protección civil en el cual se detectan inconsistencias.<br><br>Está separado el edificio y te quitan bono sino vas.<br><br>Pero es dudoso y no corresponde a protección civil.<br><br>En la empresa mencionan que ya asistieron y tienen el papel pero aun así uno se siente inseguro ya que el edificio esta separado aunque ellos comentan que es por que esta formado por dos estructuras."}},{"type":"Feature","geometry":{"type":"Point","coordinates":[-99.1745064,19.3868329,0]},"properties":{"name":"Sanborns","description":"Centro de trabajo visitado por el equipo. No pudimos recoger testimonios de los daños. No hay daños visibles"}},{"type":"Feature","geometry":{"type":"Point","coordinates":[-99.1390697,19.4115825,0]},"properties":{"name":"Grupo Papelero Gutierrez","description":"Sitio visitado por el equipo. Recogimos testimonios de los daños"}},{"type":"Feature","geometry":{"type":"Point","coordinates":[-99.1622725,19.3601175,0]},"properties":{"name":"Hospital General Xoco","description":"Sitio visitado por el equipo. Recogimos testimonios de los daños"}},{"type":"Feature","geometry":{"type":"Point","coordinates":[-99.1686846,19.4187278,0]},"properties":{"name":"El Palacio de Hierro Durango","description":"Centro de trabajo con daños severos.<br><br> La empresa ha comenzado a despedir trabajadorxs que exigen una revisión de las instalaciones. 25/07/2017 Tengo muchísimas fotos de como esta rotos o cuarteados bastantes muros aun así protección civil dio luz verde, estoy seguro que no han visto los lugares que están bastante afectados que tengo registrados en fotos. ayuda por favor! los trabajadores vendedores están amenazados a no decir nada sino los corren!<br><br>Mi novio esta trabajando ahí, los tienen amenazados de difundir cualquier información sobre los daños del edificio."}},{"type":"Feature","geometry":{"type":"Point","coordinates":[-99.1212068,19.3796879,0]},"properties":{"name":"Teleperformance Nahui","description":"Sitio visitado por el equipo. Recogimos testimonios de los daños"}},{"type":"Feature","geometry":{"type":"Point","coordinates":[-99.1787433,19.4041075,0]},"properties":{"name":"TKM Customer Solutions Patriotismo","description":"Edificio dañado. La empresa amenaza con despidos si no se presentan a trabajar"}},{"type":"Feature","geometry":{"type":"Point","coordinates":[-99.1691886,19.3608591,0]},"properties":{"name":"AARCO Agente de Seguros y Fianzas","description":"No pudimos encontrar las instalaciones de la empresa denunciada"}},{"type":"Feature","geometry":{"type":"Point","coordinates":[-99.1454855,19.4322032,0]},"properties":{"name":"Brittel Call Center","description":"Subcontratado por UVM, Telcel, entre otras. Durante el sismo, no dejaron salir a los operadores. La compañía cubre los daños en las instalaciones.<br><br>Actualmente se nos pidió acudir a laborar a otro edificio en lo que se habilitaba nuevamente el de la calle Luis Moya. Al acudir estos días por algunas de nuestras pertenencias que quedaron dentro nos percatamos que únicamente se están resanando paredes, través y techo con yeso y pintando nuevamente. Tenemos miedo de regresar a trabajar nuevamente ya que no se nos ha mostrado que protección civil acuda a verificar el establecimiento. De antemano, gracias."}},{"type":"Feature","geometry":{"type":"Point","coordinates":[-99.1058172,19.3536563,0]},"properties":{"name":"Fabricas de Calzado Andrea S.A. de C.V.","description":"Sitio visitado por el equipo. Recogimos testimonios de los daños<br><br>Daños en el techo de la empresa"}},{"type":"Feature","geometry":{"type":"Point","coordinates":[-99.1677139,19.3888193,0]},"properties":{"name":"Financiera CAME","description":"Centro de trabajo visitado por el equipo. Según testimonio, no hay daños que pongan en riesgo a lxs trabajadorxs"}},{"type":"Feature","geometry":{"type":"Point","coordinates":[-99.1407293,19.4193684,0]},"properties":{"name":"Lens Best","description":"Sitio visitado por el equipo. Recogimos testimonios de los daños<br><br>Escaleras, traves y paredes dañadas<br><br>(2o piso del edificio)"}},{"type":"Feature","geometry":{"type":"Point","coordinates":[-99.1667731,19.4097882,0]},"properties":{"name":"Mercadrec","description":"Despacho 404. Edificio sin revisión de daños"}},{"type":"Feature","geometry":{"type":"Point","coordinates":[-99.1026386,19.3689807,0]},"properties":{"name":"Productora Metálica","description":"Sitio visitado por el equipo. Recogimos testimonios de los daños<br><br>La empresa no permitió la salida de 200 trabajadorxs porque taparon la salida de emergencia."}},{"type":"Feature","geometry":{"type":"Point","coordinates":[-99.122488,19.4046,0]},"properties":{"name":"Grupo 201 Oficial, S.A. De C.V.","description":"Sin revisión de seguridad de las instalaciones"}},{"type":"Feature","geometry":{"type":"Point","coordinates":[-99.1432525,19.4341801,0]},"properties":{"name":"Plaza Juárez","description":"La plaza funciona como un centro de económico, los trastejadores reportan daños en el inmueble, los cuales fueron resanados y tapados con pintura. No hubo una inspección de protección civil "}},{"type":"Feature","geometry":{"type":"Point","coordinates":[-99.1268668,19.415556,0]},"properties":{"name":"Cometra","description":"Los trabajadores reportan que no se les permite salir cuando hay un sismo, existe un grupo de mujeres que laboran en un tipo asotano y son obligadas a permanecer al interior del inmueble. "}},{"type":"Feature","geometry":{"type":"Point","coordinates":[-99.165009,19.36797,0]},"properties":{"name":"Vips Universidad","description":"Instalaciones con daños severos. A pesar de la situación, la empresa obliga a los trabajadores a laborar."}},{"type":"Feature","geometry":{"type":"Point","coordinates":[-99.1975609,19.3574006,0]},"properties":{"name":"Iké","description":"Empresa condiciona el pago del bono a cambio de asistir a trabajar en día de descanso como compensación de la falta del día 19 de septiembre. No hay evaluación de daños en el inmueble"}},{"type":"Feature","geometry":{"type":"Point","coordinates":[-99.1020983,19.4739731,0]},"properties":{"name":"Salas Divano","description":"Empresa no deja salir a lxs trabajadorxs el día del sismo. No hay condiciones para volver a las labores.<br><br>Los empleado del inmueble que ocupa la empresa Divano Salas solicitan de manera urgente la revisión del edificio toda vez que el ambiente laboral es de inseguridad, dado que este no ha sido revisado sobre los daños que pudiera haber sufrido por el pasado terremoto del 19 de septiembre de 2017. Favor de atender la presente denuncia."}},{"type":"Feature","geometry":{"type":"Point","coordinates":[-99.2001808,19.539759,0]},"properties":{"name":"Servicio de Administración Tributaria sede Tlalnepantla","description":"Edificio de siete pisos con daños en paredes, techos y escaleras. No se presenta peritaje oficial a los trabajadores ni información alguna de seguridad del inmueble. Director de la institución autoriza el resanado de las grietas para ocultar daños antes de la visita de protección civil"}},{"type":"Feature","geometry":{"type":"Point","coordinates":[-99.2245348,19.3615591,0]},"properties":{"name":"Hospital General Dr. Enrique Cabrera","description":"El hospital presenta serios daños estructurales. No existe peritaje oficial, trabajadores se sienten inseguros."}},{"type":"Feature","geometry":{"type":"Point","coordinates":[-99.182632,19.39348,0]},"properties":{"name":"Grupo HT","description":"El tercer piso se muestra dividido, se observan grietas en el suelo y paredes por dentro y fuera, grietas en cocina y paredes de primer piso. No existe peritaje certificado "}},{"type":"Feature","geometry":{"type":"Point","coordinates":[-99.1823318,19.403489,0]},"properties":{"name":"Nacional Monte de Piedad","description":"El inmueble presenta daños, a los trabajadores no se les ha entregado ninguna constancia oficial de peritaje. Se les pide asistir a cubrir  jornadas completas."}},{"type":"Feature","geometry":{"type":"Point","coordinates":[-99.26453,19.364525,0]},"properties":{"name":"Actinver Santa Fe González Camarena","description":"Testimonio: \"Lo más preocupante es que la empresa mantiene siempre cerradas las puertas de emergencia, afortunadamente el día del sismo hubo un simulacro por lo que estaban abiertas. El mismo día que ocurrió todo nadie dio un comunicado sobre las condiciones del edificio, simplemente hicieron que todos entrarán y continuarán sus actividades como si nada hubiese pasado.\"<br><br>Enviaron un comunicado del administrador del edificios pero ninguno oficial ! Y repararon fachadas antes de que fueran evaluadas y se encuentran daños dentro del edificio dese fuera no se ve nada ya que es de cristal."}},{"type":"Feature","geometry":{"type":"Point","coordinates":[-99.1748491,19.4122542,0]},"properties":{"name":"Agencia Bee","description":"Testimonios: El edificio de junto está recargado sobre nuestra oficina. <br>El edificio de a lado tiene daños y se está recargando en las oficinas, hay peligro de derrumbre<br>El edificio vecino tiene fuertes daños <br>El edificio de a lado sufrió fuertes daños y me preocupa un posible derrumbe <br><br>El edificio en si a pesar de los daños parece “estar seguro”. El problema y que da miedo es que el edificio de junto se está recargando en este. Es un edifico muy grande que ya declararon inhabitable por lo mismo que quedó chueco."}},{"type":"Feature","geometry":{"type":"Point","coordinates":[-98.8986142,19.2687207,0]},"properties":{"name":"Alberca Chalco","description":"Testimonio: No se ha presentado Protección Civil, hay una grieta y es una alberca donde nadan muchos niños"}},{"type":"Feature","geometry":{"type":"Point","coordinates":[-99.1659174,19.4325998,0]},"properties":{"name":"Another Company","description":""}},{"type":"Feature","geometry":{"type":"Point","coordinates":[-99.237882,19.498416,0]},"properties":{"name":"Bed Bath & Beyond","description":"Testimonio: Creí que está mal que nos pongan a trabajar sin haber revisado el inmueble la verdad es una estupidez que no revisen los gerentes solo hacen comentarios como \"no pasa nada\" sin siquiera haber revisado el establecimiento se encuentra justo frente a las torres de satélite dentro del la plaza mega comercial "}},{"type":"Feature","geometry":{"type":"Point","coordinates":[-99.075674,19.3511064,0]},"properties":{"name":"CCPM","description":""}},{"type":"Feature","geometry":{"type":"Point","coordinates":[-99.1702867,19.4194782,0]},"properties":{"name":"Cial D&B, Dun&Bradstreet","description":"Testimonio: Se obligó a hacer home office desde el jueves 21 de septiembre y las actividades se retomarán en el edificio  el lunes 25 pero NO nos sentimos seguros de asistir "}},{"type":"Feature","geometry":{"type":"Point","coordinates":[-99.082275,19.3840638,0]},"properties":{"name":"Cinemex Plaza Oriente","description":""}},{"type":"Feature","geometry":{"type":"Point","coordinates":[-99.1839534,19.3837047,0]},"properties":{"name":"Comisión Nacional de Hidrocarburos","description":"Testimonio: Es un riesgo innecesario el que estamos viviendo, además de entorpecer el tránsito de la ciudad en plena emergencia, hay compañeros que vienen de Iztapalapa, Ecatepec y Metepec. Que vergüenza la falta de solidaridad con la ciudad. Es una gran iniciativa la de este grupo de estudiantes! Hay que hacer visibles las malas acciones!"}},{"type":"Feature","geometry":{"type":"Point","coordinates":[-99.1803688,19.295528,0]},"properties":{"name":"COLEGIO LIBERTADORES DE AMÉRICA","description":""}},{"type":"Feature","geometry":{"type":"Point","coordinates":[-99.1584504,19.3789142,0]},"properties":{"name":"Clonoterapia México","description":"Sitio visitado por el equipo. Recogimos testimonios de los daños<br><br>Testimonio: Somos los únicos laborando en el edificio , todos los demás inquilinos ya evacuaron y se llevaron sus cosas , se están atendiendo pacientes en estas condiciones y solo resanan las grietas para que no se vean . El piso se pandeo, se formo una cuneta y así estamos aquí . Necesitamos que las autoridades vengan . Estamos a la salida de metro división del norte. "}},{"type":"Feature","geometry":{"type":"Point","coordinates":[-99.1742669,19.4108371,0]},"properties":{"name":"Compucenter de Mexico -Mayorista Escaners","description":"Testimonio: Enfrente del inmueble hay un edificio muy dañado, además que los alrededores hay mas inmuebles a punto de colapsar o ya derrumbados. "}},{"type":"Feature","geometry":{"type":"Point","coordinates":[-99.1805078,19.3695433,0]},"properties":{"name":"CompuCom Insurgentes","description":"Testimonio: Al parecer hay daños en los pisos 1 y 2 del edificio pero no nos dejan accesar a ellos por lo que no podemos ver qué tan dañado está el edificio ni nos dicen exactamente qué tiene Dicen que es seguro sin embargo yo he notado que están poniendo tubos para sostener el piso 1 Mencionan que el piso 1 está flotando, lo cual, no entiendo a qué se refieran. El piso uno y dos no están abiertos y los elevadores no están funcionando, se han caído cosas y aún así nos hacen trabajar. detrás de nuestro lab hay edificios en mal estado, el dueño no nos deja evacuar si no acabamos nuestro trabajo."}},{"type":"Feature","geometry":{"type":"Point","coordinates":[-99.2608414,19.3736329,0]},"properties":{"name":"Corporativo Santa Fe II","description":"Testimonio: Tengo miedo de entrar a trabajar en ese lugar"}},{"type":"Feature","geometry":{"type":"Point","coordinates":[-99.1649783,19.365096,0]},"properties":{"name":"Deluca","description":"Sitio visitado por el equipo. No pudimos conversar con trabajadores para recoger testimonios. Hay daños visibles"}},{"type":"Feature","geometry":{"type":"Point","coordinates":[-99.1856343,19.3917836,0]},"properties":{"name":"Eficasia","description":"Testimonio: Es un call center, se separó la pared del elevador. Es un edificio de 4 pisos, hay daños en los pisos tres y cuatro. Supuestamente, mencionan a los trabajadores que contrataron una firma externa para que revisara el edificio. Y desde el martes avisaron que los trabajadores deberían presentarse a labores normales. Al llegar a las oficinas, sí algún trabajador los cuestionaba por los daños, respondían:pues si quieren pasar a trabajar, si no pues regresen a su casa (de forma muy punitiva). Cabe agregar que, el día martes no sacaron a todo el personal de sus campañas a realizar el simulacro,tampoco se tomaron la molestia de avisar que todos deben de salir y mucho menos tienen una brigada que verifique sí todos ya se han puesto en resguardo (no cumplen con los parámetros de protección civil). Por tal motivo, me da mucha desconfianza que en realidad se preocupen por la integridad de los trabajadores. Agradezco su atención.<br><br>En la parte de las escaleras se ven cuarteaduras además en los techos también se ven, las columnas la pintura se cayo pero realmente el edificio no está condicionado para un sismo."}},{"type":"Feature","geometry":{"type":"Point","coordinates":[-99.1668596,19.4219311,0]},"properties":{"name":"ENLACE TP","description":"Testimonio:  Pidieron ir a recoger equipos, el edificio está en muy malas condiciones, sigue entrando gente! Gente de seguridad prohíbe tomar fotos! La calle está cerrada y la policia no hace nada! Es empresa de grupo Salinas! "}},{"type":"Feature","geometry":{"type":"Point","coordinates":[-99.2100276,19.3064456,0]},"properties":{"name":"Totalplay","description":"Testimonio: Solo resanaron algunas grietas pero se están cuarteando nuevamente aparte hay otros pisos donde las grietas son más grandes y más riesgosas"}},{"type":"Feature","geometry":{"type":"Point","coordinates":[-99.1211548,19.2719872,0]},"properties":{"name":"Escuela Nacional Preparatoria No. 1 Gabino Barreda","description":"Severos daños en muros. Anexo de fotos: https://www.dropbox.com/sh/vvv5xdarapjqk6l/AACjbeFcWmNwY_PEydgkqoF8a?dl=0"}},{"type":"Feature","geometry":{"type":"Point","coordinates":[-99.1337693,19.2832647,0]},"properties":{"name":"CitiBanamex","description":"Se reportan daños visibles en la estructura del edificio y mobiliario.  Especial atención al edifico conocido como \"Periseis\". Al rededor de 30 trabajadores de Banca electrónica se encuentran laborando en el inmueble desde el día 20 de septiembre, sin ningún peritaje de seguridad"}},{"type":"Feature","geometry":{"type":"Point","coordinates":[-99.1678026,19.4069882,0]},"properties":{"name":"SUBDELEGACION 6 IMSS PIEDAD NARVARTE","description":"No existe peritaje de protección civil, daños en paredes, muros de carga y escaleras.<br><br>Estamos en espera del dictamen, pero parece ser que lo están maquillando antes de que vayan las autoridades a revisarlo."}},{"type":"Feature","geometry":{"type":"Point","coordinates":[-99.1842162,19.3491378,0]},"properties":{"name":"Grupo Mexicano De Seguros","description":""}},{"type":"Feature","geometry":{"type":"Point","coordinates":[-99.0124331,19.385967,0]},"properties":{"name":"B connect","description":""}},{"type":"Feature","geometry":{"type":"Point","coordinates":[-99.1851313,19.3790557,0]},"properties":{"name":"INEGI","description":""}},{"type":"Feature","geometry":{"type":"Point","coordinates":[-99.1893291,19.3722494,0]},"properties":{"name":"FAMSA","description":""}},{"type":"Feature","geometry":{"type":"Point","coordinates":[-99.033799,19.3709778,0]},"properties":{"name":"FES ZARAGOZA, UNAM","description":""}},{"type":"Feature","geometry":{"type":"Point","coordinates":[-99.1609508,19.3963138,0]},"properties":{"name":"IMSS","description":""}},{"type":"Feature","geometry":{"type":"Point","coordinates":[-99.1735042,19.3993226,0]},"properties":{"name":"Financiera Nacional de Desarrollo","description":""}},{"type":"Feature","geometry":{"type":"Point","coordinates":[-99.1489926,19.28906,0]},"properties":{"name":"Instituto Nacional de Rehabilitación INR","description":""}},{"type":"Feature","geometry":{"type":"Point","coordinates":[-99.1425293,19.4224977,0]},"properties":{"name":"Fundación de Asistencia Privada Conde de Valencia","description":""}},{"type":"Feature","geometry":{"type":"Point","coordinates":[-99.1794165,19.2956663,0]},"properties":{"name":"ISSSTE Dirección Médica","description":""}},{"type":"Feature","geometry":{"type":"Point","coordinates":[-99.1755573,19.3722171,0]},"properties":{"name":"FUNDACIÓN MEXICO ESTADOS UNIDOS PARA LA CIENCIA","description":""}},{"type":"Feature","geometry":{"type":"Point","coordinates":[-99.1925415,18.9355614,0]},"properties":{"name":"Galerias Cuernavaca","description":"Testimonio: Ayuda por favor no se como actuar ante esta situación.<br>Necesitamos solucionar este problema, no puedo trabajar en estas condiciones.<br>Los trabajadores se sienten inseguros y con miedo a que se pueda derrumbar"}},{"type":"Feature","geometry":{"type":"Point","coordinates":[-99.1675121,19.3714695,0]},"properties":{"name":"Gayosso","description":""}},{"type":"Feature","geometry":{"type":"Point","coordinates":[-99.14803,19.3828201,0]},"properties":{"name":"Gesalm servicios sa de cv","description":"Sitio visitado por el equipo. Recogimos testimonios de los daños"}},{"type":"Feature","geometry":{"type":"Point","coordinates":[-99.1104225,19.4332458,0]},"properties":{"name":"Grupo ADO","description":""}},{"type":"Feature","geometry":{"type":"Point","coordinates":[-99.1716189,19.4529243,0]},"properties":{"name":"IPN Escuela Nacional de Ciencias Biológicas","description":""}},{"type":"Feature","geometry":{"type":"Point","coordinates":[-99.1067936,19.4183211,0]},"properties":{"name":"Grupo comercial Atlas","description":""}},{"type":"Feature","geometry":{"type":"Point","coordinates":[-99.1496151,19.425296,0]},"properties":{"name":"Izzi Telecom Oficinas Centrales","description":"Testimonio: Me ubico en el 2do piso y no tenemos salida de emergencia"}},{"type":"Feature","geometry":{"type":"Point","coordinates":[-99.1729301,19.4006866,0]},"properties":{"name":"Grupo Farmacos Especializados","description":""}},{"type":"Feature","geometry":{"type":"Point","coordinates":[-99.1713772,19.4214375,0]},"properties":{"name":"Kairos","description":""}},{"type":"Feature","geometry":{"type":"Point","coordinates":[-99.1371118,19.3218775,0]},"properties":{"name":"Grupo Joskes de México ","description":"En apariencia desde la calle parecen estar bien los edificios, ya en el patio de la empresa se observan los daños uno de los edificios esta muy dañado."}},{"type":"Feature","geometry":{"type":"Point","coordinates":[-99.1700712,19.4004616,0]},"properties":{"name":"Grupo Marti","description":"Sitio visitado por el equipo. Recogimos testimonios de los daños"}},{"type":"Feature","geometry":{"type":"Point","coordinates":[-99.1625263,19.3659062,0]},"properties":{"name":"KYO Fitness","description":""}},{"type":"Feature","geometry":{"type":"Point","coordinates":[-99.1476259,19.3365129,0]},"properties":{"name":"Lord Bertrand Russell ","description":"Testimonio: El día de ayer el dueño de la escuela hizo que los maestros fueran y los dejó salir cuando él indicó y no como indica sus horarios laborales "}},{"type":"Feature","geometry":{"type":"Point","coordinates":[-99.1402753,19.4220385,0]},"properties":{"name":"Grupo Papelero Gutiérrez","description":""}},{"type":"Feature","geometry":{"type":"Point","coordinates":[-99.1615175,19.3746229,0]},"properties":{"name":"Grupo Scanda","description":"Los Trabajadores que solicitan peritaje de daños autorizado por protección civil son amedrentados por los empleadores. Ya hemos solicitado varias veces se nos muestre el formato expedido por Protección Civil o el DRO y nos lo niegan, han amedrentado a compañeros por hacer dicha petición."}},{"type":"Feature","geometry":{"type":"Point","coordinates":[-99.1565289,19.4328004,0]},"properties":{"name":"Paseo de la Reforma 107","description":""}},{"type":"Feature","geometry":{"type":"Point","coordinates":[-99.1705047,19.4180269,0]},"properties":{"name":"Hospital Maria José Roma","description":""}},{"type":"Feature","geometry":{"type":"Point","coordinates":[-99.151388,19.4335854,0]},"properties":{"name":"Magnicharters Mexico Oficina Matriz","description":"Testimonio: Tenemos fotografías con los daños que se originaron a raíz del sismo solo queremos saber si es seguro el edificio. Gracias!"}},{"type":"Feature","geometry":{"type":"Point","coordinates":[-99.1331792,19.4868062,0]},"properties":{"name":"Unidad de Trasplante Renal Hospital Regional 1o. de Octubre ISSSTE","description":""}},{"type":"Feature","geometry":{"type":"Point","coordinates":[-99.1455222,19.4290921,0]},"properties":{"name":"Best Western Estoril","description":""}},{"type":"Feature","geometry":{"type":"Point","coordinates":[-99.176346,19.501332,0]},"properties":{"name":"HSBC México","description":""}},{"type":"Feature","geometry":{"type":"Point","coordinates":[-99.1863965,19.390565,0]},"properties":{"name":"Mapfre seguros","description":"Lo único que se ve dañado son las escaleras de emergencia, pero de todos modos me gustaría que alguien CALIFICADO fuera a revisar. Gracias."}},{"type":"Feature","geometry":{"type":"Point","coordinates":[-99.1643466,19.4279675,0]},"properties":{"name":"Marriott","description":""}},{"type":"Feature","geometry":{"type":"Point","coordinates":[-99.1809872,19.4321658,0]},"properties":{"name":"Ibushak","description":""}},{"type":"Feature","geometry":{"type":"Point","coordinates":[-99.2133849,19.460568,0]},"properties":{"name":"Ifiel (IPsos Mexico Operaciones de Campo)","description":""}},{"type":"Feature","geometry":{"type":"Point","coordinates":[-99.1544576,19.4317669,0]},"properties":{"name":"Megafema agentes de seguros y fianzas sa de cv","description":""}},{"type":"Feature","geometry":{"type":"Point","coordinates":[-99.1975609,19.3574006,0]},"properties":{"name":"Ike Asistencia","description":""}},{"type":"Feature","geometry":{"type":"Point","coordinates":[-99.1700712,19.4003235,0]},"properties":{"name":"Ilogistic","description":"Sitio visitado por el equipo. Recogimos testimonios de los daños"}},{"type":"Feature","geometry":{"type":"Point","coordinates":[-99.1667732,19.4123786,0]},"properties":{"name":"Mercadrec","description":"Despacho 404"}},{"type":"Feature","geometry":{"type":"Point","coordinates":[-99.1915597,19.3621797,0]},"properties":{"name":"Impresos vacha","description":""}},{"type":"Feature","geometry":{"type":"Point","coordinates":[-99.1365218,19.4256896,0]},"properties":{"name":"Mexico Mart (Edificio)","description":"El edificio se llama Mexico Mart y ahi hay oficinas de la Secretaria de Finanzas, Procurafuria Fiscal, Fidere, SSP, Secretaria del Trabajo, Sistema dd Aguas y las instalaciones de la televisora Capital 21 y en PB hay un BBVA Bancomer"}},{"type":"Feature","geometry":{"type":"Point","coordinates":[-99.1223444,19.379737,0]},"properties":{"name":"IMSS Delegación 4 Sur","description":"Están parchando los daños para que los trabajadores regresemos a laborar sin importarles el riesgo que corremos, el día 21 de septiembre del 2017 nos estaban obligando a laborar y amenazaban con descontarnos si no nos presentábamos. Por favor el edificio está muy dañado y nunca ha ido protección civil, los dictámenes que muestran son por parte del propio instituto y del dueño del edificio."}},{"type":"Feature","geometry":{"type":"Point","coordinates":[-99.1550632,19.4069175,0]},"properties":{"name":"IMSS - Centro médico Nacional Siglo XXI","description":""}},{"type":"Feature","geometry":{"type":"Point","coordinates":[-99.1716996,19.4207688,0]},"properties":{"name":"MILANO operadora , S.A. de C.V., servicios corporativos milano, s. A. De c. V. ","description":"Testimonios: Los edificios aledaños están por caer. No tienen aquí, sin hacer nada. Pretenden que carguemos equipo y mobiliario para trasladarlo a otro centro de trabajo. "}},{"type":"Feature","geometry":{"type":"Point","coordinates":[-99.0396795,19.3882782,0]},"properties":{"name":"HGR 25 Zaragoza IMSS","description":""}},{"type":"Feature","geometry":{"type":"Point","coordinates":[-99.1296393,19.4962671,0]},"properties":{"name":"Mozart educación musical","description":""}},{"type":"Feature","geometry":{"type":"Point","coordinates":[-99.1724871,19.4237173,0]},"properties":{"name":"IMSS Oficinas Centrales","description":""}},{"type":"Feature","geometry":{"type":"Point","coordinates":[-99.1780235,19.4269395,0]},"properties":{"name":"Multisistemas de seguridad privada","description":"Testimonio: Huele a gas"}},{"type":"Feature","geometry":{"type":"Point","coordinates":[-99.1223483,19.3798297,0]},"properties":{"name":"Subdelegación 9 IMSS, Santa Anita, Ciudad De México","description":"Trstimonio: Los trabajadores nos sentimos abandonados y sin ningun interes por parte de las autoridades AUXILIO<br>El edificio está viejo en el 85 era de la Secretaría de la Reforma Agraria y lo remodelaron según para hacerlo funcional pero con los temblores que han pasado ya está resentido y en muy malas condiciones "}},{"type":"Feature","geometry":{"type":"Point","coordinates":[-99.1705912,19.4265493,0]},"properties":{"name":"Notaria 14","description":""}},{"type":"Feature","geometry":{"type":"Point","coordinates":[-99.1311246,19.3079104,0]},"properties":{"name":"IMSS Hospital General de Zona 32","description":""}},{"type":"Feature","geometry":{"type":"Point","coordinates":[-99.1665184,19.4056773,0]},"properties":{"name":"Notimex, Agencia de Noticias del Estado Méxicano","description":""}},{"type":"Feature","geometry":{"type":"Point","coordinates":[-99.185179,19.3549438,0]},"properties":{"name":"Novalaser","description":""}},{"type":"Feature","geometry":{"type":"Point","coordinates":[-99.172099,19.3593666,0]},"properties":{"name":"Telmex","description":"Testimonio: Se hizo una inspección por parte de una arquitecta del propio edificio, sin embargo, no es personal externo, PC certificó con los argumentos de ella y no hizo inspección exhaustiva"}},{"type":"Feature","geometry":{"type":"Point","coordinates":[-99.2158942,19.4570746,0]},"properties":{"name":"Óptima","description":""}},{"type":"Feature","geometry":{"type":"Point","coordinates":[-99.1722988,19.3653879,0]},"properties":{"name":"Telvista Corporativo Valle","description":"Testimonio: Ya están corriendo gente por haberse retirado el día del sismo e incluso se dijo que eran unos aprovechados.<br><br>No me sentí a gusto pues en el recorrido hacia el trabajo hubo estaciones del metro y metrobus cerradas pues en carro menos así qué me toco caminar en horas tempranas de la mañana y que nos hayan hecho ir estoy muy triste ya que me gusta la manera que trabaja pero tener que saber como es en realidad después de un desastre natural es tristeza."}},{"type":"Feature","geometry":{"type":"Point","coordinates":[-99.1803628,19.4062049,0]},"properties":{"name":"PRD","description":""}},{"type":"Feature","geometry":{"type":"Point","coordinates":[-99.1584782,19.428193,0]},"properties":{"name":"Tertius","description":"Testimonio: Solo nos dicen que el edificio es seguro sin ningún documento oficial y que se esta haciendo do limpieza y reparaciones en la oficinas para pode reocuparlas, pero el edificio se ve inclinado"}},{"type":"Feature","geometry":{"type":"Point","coordinates":[-99.1704849,19.4249735,0]},"properties":{"name":"Pendulum","description":"Testimonio: El documento que presentaron no se ve avalado por un experto o persona de protección civil"}},{"type":"Feature","geometry":{"type":"Point","coordinates":[-98.2336437,19.0465612,0]},"properties":{"name":"The engine software","description":"Testimonio: Muchas personas están angustiadas con la decisión que los dueños tomaron de obligar a trabajar a los colaboradores bajo un edificio que durante el temblor se cimbró demasiado"}},{"type":"Feature","geometry":{"type":"Point","coordinates":[-99.0087486,19.3615578,0]},"properties":{"name":"Santa Martha Acatitla","description":""}},{"type":"Feature","geometry":{"type":"Point","coordinates":[-99.190158,19.3041437,0]},"properties":{"name":"Tienda de bisuteria S.A. de C.V. (Isadora)","description":""}},{"type":"Feature","geometry":{"type":"Point","coordinates":[-99.1487795,19.4321447,0]},"properties":{"name":"Av. Morelos 16","description":""}},{"type":"Feature","geometry":{"type":"Point","coordinates":[-99.1824873,19.3899061,0]},"properties":{"name":"TKM","description":""}},{"type":"Feature","geometry":{"type":"Point","coordinates":[-99.137956,19.4232062,0]},"properties":{"name":"Tribunal Superior de Justicia 15 Penal De Delitos No Graves","description":"Testimonio: Esta en peligro la vida de mas de 9,000 empleados y el publico que ingresa a los edificios"}},{"type":"Feature","geometry":{"type":"Point","coordinates":[-99.152354,19.448021,0]},"properties":{"name":"Forum Buenavista Centro Comercial","description":"Testimonio: Daños estructurales dentro del inmueble y desprendimientos en el hotel que se esta construyendo en la parte de arriba."}},{"type":"Feature","geometry":{"type":"Point","coordinates":[-99.1716867,19.4362681,0]},"properties":{"name":"Galerías Plaza de las Estrellas","description":"Testimonio: También se declara fuga de gas"}},{"type":"Feature","geometry":{"type":"Point","coordinates":[-99.1487087,19.3845725,0]},"properties":{"name":"PRB - Conecta","description":"Sitio visitado por el equipo. Recogimos testimonios de los daños"}},{"type":"Feature","geometry":{"type":"Point","coordinates":[-99.140859,19.4250245,0]},"properties":{"name":"Tribunal Superior De Justicia De La Cuidad de México","description":"Testimonio: Todos los trabajadores pedimos que nos cambien de edificio. Siempre parchan aparentemente. Pero no están en buenas condiciones. Hay columnas colapsadas. Por favor es riesgoso y no dejan q revisen los de la unam peritos. Esta vez nos salvamos por favor. Necesitamos trabajar pero también cuidar la vida. <br>Nos dijeron el mismo día del temblor a as 5 pm que el edificio ya había sido evaluado y que teníamos que presentarnos a trabajar "}},{"type":"Feature","geometry":{"type":"Point","coordinates":[-99.1470729,19.4269518,0]},"properties":{"name":"Procuraduría de Justicia de la Ciudad de México","description":"Testimonio: Nos refieren los jefes inmediatos que los peritos de la pgj, valoraron el edificio. Yo soy personal de honorarios y sólo a personal de base les dijeron que se presentarán hasta el lunes. No nos han mostrado ningún dictamen. La gente seguimos laborando, están resanando las grietas abiertas, es muy peligroso el lugar. Solicitó si alguien experto ajeno a la pgj lo verifique. A"}},{"type":"Feature","geometry":{"type":"Point","coordinates":[-99.281651,19.354928,0]},"properties":{"name":"Quad Campus Corporativo Santa Fe","description":""}},{"type":"Feature","geometry":{"type":"Point","coordinates":[-99.281651,19.354928,0]},"properties":{"name":"Quad Campus Corporativo Santa Fe","description":"Escaleras de emergencia dañadas por el sismo. No se cuenta con peritaje autorizado que de garantía de seguridad del inmueble a los trabajadores. "}},{"type":"Feature","geometry":{"type":"Point","coordinates":[-99.1559558,19.4031914,0]},"properties":{"name":"IMSS DELEGACION SUR","description":"Testimonio: Desde el día del temblor no hemos ido a trabajar a petición de nuestro delegado pero hemos ido algunos y vimos cómo están arreglando el edificio, resanando grietas, pegando plafones, remendando escaleras y todo esto lo hacen sin que ya haya ido Protección civil Así que lo que pretenden es maquillar el edificio para cuando ellos vayan den el visto bueno para que nosotros reingresemos a trabajar cuando ese edificio es inseguro ð ayuda por fa! Nos dan la orden de ir a trabajar argumentando que somos trabajadores de confianza y ya estar reparando los daños para que se vea bonito el edificio y no haya quejas"}},{"type":"Feature","geometry":{"type":"Point","coordinates":[-99.0112523,19.3550795,0]},"properties":{"name":"Penitenciaria Santa Martha","description":"Testimonio: Es un sitio que está a punto de.caerse pero a nadie le importa porque sigue siendo contenedor de delincuentes."}},{"type":"Feature","geometry":{"type":"Point","coordinates":[-99.161707,19.418151,0]},"properties":{"name":"PreMediTest","description":"Testimonio: Se necesita un peritaje de la estructura dado que el piso décimo presentó daños en estructuras de carga"}},{"type":"Feature","geometry":{"type":"Point","coordinates":[-99.1035098,19.4028943,0]},"properties":{"name":"Pyrolac S.A. de C.V.","description":"Testimonio: mas que nada revisar bien ya que somos una empresa de pinturas, material inflamable, y pues solo reviso una persona que no esta capacitada para eso"}},{"type":"Feature","geometry":{"type":"Point","coordinates":[-99.1813578,19.4307198,0]},"properties":{"name":"Resuelve tu Deuda","description":"Testimonio: Entrega dictamen de valoración en 3 semanas"}},{"type":"Feature","geometry":{"type":"Point","coordinates":[-99.1347795,19.4908581,0]},"properties":{"name":"Restaurante la Diana Cazadora","description":"Testimonio: ha laborado desde el 19 de septiembre, incluso cuando el área estuvo acordonada porque varios vidrios del edificio se rompieron"}},{"type":"Feature","geometry":{"type":"Point","coordinates":[-99.1660034,19.3681775,0]},"properties":{"name":"Sanborns Plaza Universidad","description":"Testimonio: Los días que estuvo cerrada la tienda mandaron personas de mantenimiento a resanar grietas y pintar para que no se notaran las grietas. El Sr. López (Gerente Distrital) está presionando para que no se deje de trabajar."}},{"type":"Feature","geometry":{"type":"Point","coordinates":[-99.1829073,19.3036658,0]},"properties":{"name":"SENASICA","description":"Testimonio: \"Nos mandaron un documento mencionando que los daños son leves, sin embargo el día de hoy que estoy laborando, las escaleras de servicio se encuentran muy dañadas, son 9 pisos, las del piso 3-4-5 están despegadas de la pared y hay grietas que parecieran de 45 grados. En el sismo anterior (07/09/2017) los arquitectos del edificio negaron daños y se pusieron a la defensiva, no dudo que el edificio sea resistente, sin embargo, los daños que presenta en las escaleras y en otros pisos, parece grave. <br>Somos mas de 1000 personas en el edificio y no se como sea la estabilidad del suelo o de las escaleras o los elevadores, pero si recomiendo que profundamente que se valide oficialmente por que de verdad las escaleras son un desastre. las grietas y son bastante grandes. Cabe mencionar que ya están trabajando en ello, están pintando y recubriendo las grietas. <br>\""}},{"type":"Feature","geometry":{"type":"Point","coordinates":[-99.1837392,19.2985588,0]},"properties":{"name":"Scitum S.A. de C.V.","description":"Testimonio: Exigieron que nos presentamos en las instalaciones para laborar, con el pretexto de que las instalaciones son seguras, sin embargo, nunca se presentó un documento que avalara esto ni se llamó a protección civil."}},{"type":"Feature","geometry":{"type":"Point","coordinates":[-99.1207625,19.3113626,0]},"properties":{"name":"SECRETARÍA DE COMUNICACIONES Y TRANSPORTES - Medicina Preventiva","description":"Testimonio: Se nos informo la seguridad en forma verbal, pero nos sentimos inseguros, x no existir realmente una buena revisión del lugar, aunque son visibles unos daños, nos aseguran q no pasa nada"}},{"type":"Feature","geometry":{"type":"Point","coordinates":[-99.16593,19.367254,0]},"properties":{"name":"Sears","description":"Testimonio: Informo que el 21 de septiembre del 2017 a las 12:40 de la tarde se abrió la tienda de Sears universidad teniendo unas partes de la tienda que nos preocupan a la mayoría de los empleados, vinieron a checar el día 20 de septiembre por parte de carso unos arquitectos pero no se nos informo si el inmueble estaba en buenas condiciones solo lo sabe la gerente de tienda y el día de hoy 21 de septiembre se nos informo en general que solo era el cascarón o lo superficial lo que estaba dañado. Vinieron a checar el inmueble por parte de carso unos arquitectos pero no nos dieron un informe y Hay formatos que tienen sobre el inmueble pero no nos terminan de convencer del todo seguimos inseguros ..."}},{"type":"Feature","geometry":{"type":"Point","coordinates":[-99.1592181,19.4325682,0]},"properties":{"name":"SEDUVI Secretaría de Desarrollo Urbano y Vivienda","description":"Testimonio: Estamos con la incertidumbre de que pasara, nos encontramos a un predio de distancia ya que a simple vista hay daños visiblemente graves en ese edificio."}},{"type":"Feature","geometry":{"type":"Point","coordinates":[-99.136547,19.4260541,0]},"properties":{"name":"Sistema de Aguas de la Ciudad de México","description":"Testimonio: La infraestructura del edificio está muy dañada y lo único que han hecho es reparación de las grietas.<br>Están tapando ya los daños con nuevo aplanado, sin embargo el edificio es inseguro, hay daños en las trabes y columnas "}},{"type":"Feature","geometry":{"type":"Point","coordinates":[-99.1677016,19.3919914,0]},"properties":{"name":"SICREA Autofinanciamiento Nissan","description":"Testimonio: El edificio es muy antiguo. La empresa obliga a los trabajadores a asistir a pesar de que no se ha inspeccionado el lugar de trabajo."}},{"type":"Feature","geometry":{"type":"Point","coordinates":[-99.1434063,19.4268954,0]},"properties":{"name":"Sistema de Transporte Colectivo Metro","description":"Testimonio: Se trata del edificio del metro, anexo a la estación salto del agua, de línea 1, que presenta grietas en columnas, principalmente en primero, segundo y tercer pisos, el primer piso ya no tiene gente, pero los pisos del segundo al sexto nos están obligando a permanecer aquí, a pesar de haber daños evidentes y que no hay un dictamen oficial de que el edificio pueda ser utilizado sin riesgo, por lo que solicitamos su ayuda, ya que los trabajadores no se atreven a desalojar por las amenazas de los funcionarios jefes, Gracias"}},{"type":"Feature","geometry":{"type":"Point","coordinates":[-99.0725805,19.360934,0]},"properties":{"name":"Uam Iztapalapa","description":"Testimonio: El sindicato intervino y no se retomaron labores, sin embargo, de no ser por ellos estaríamos ahí."}},{"type":"Feature","geometry":{"type":"Point","coordinates":[-99.078532,19.4212175,0]},"properties":{"name":"Wings","description":"Testimonio: El aeropuerto y mi empresa por no perder dinero dicen que no pasa nada cuando la terminal se está cayendo a pedazos y ni siquiera muestran un papel donde certifique que estamos seguros "}},{"type":"Feature","geometry":{"type":"Point","coordinates":[-99.1485344,19.433229,0]},"properties":{"name":"Xin Tian De Mexico Sa De Cv","description":"Testimonio: Solicitamos de su apoyo para que se verifique el estado del edificio, así mismo como observación, tenemos un estacionamiento aprx. a 40 mts. que se ve aún más dañada la estructura, en la base de su castillo principal, por lo cual nos preocupa que el área en si de la calle ademas de lo daños en el edificio no hayan sido revisados aún "}},{"type":"Feature","geometry":{"type":"Point","coordinates":[-99.1743678,19.4065189,0]},"properties":{"name":"Gral. Benjamín Hill 221","description":"Testimonio: \"Fue a verificar un perito que siempre nos realiza dictamenes falsos.<br>Muchos no confiamos en el.<br>Por dentro el edificio se cuarteo y ya han empezado a resanar.<br>Siempre que pasan camiones el edificio tiembla, ahora tiembla mas.\""}},{"type":"Feature","geometry":{"type":"Point","coordinates":[-99.1764325,18.9156165,0]},"properties":{"name":"Unilever-Ponds","description":"Testimonio: La Planta de Aerosoles es de alto riesgo por el propelente que se maneja. Tengo miedo de asistir."}},{"type":"Feature","geometry":{"type":"Point","coordinates":[-99.178733,19.4038653,0]},"properties":{"name":"Convertia","description":"Testimonio: Estamos amenazados por la empresa Convertía De hecho no nos permitieron realizar el simulacro porque tenemos que contestar llamadas y eso es perdida de tiempo Las escaleras están dañadas y habemos diferentes empresas en cada piso somos alrededor de 100 personas por piso Según fue Protección Civil y es falso están solo resanando las grietas Lo hacen cuando nos vamos para que no veamos"}},{"type":"Feature","geometry":{"type":"Point","coordinates":[-99.158625,19.427409,0]},"properties":{"name":"Atento Site Dinamarca","description":""}},{"type":"Feature","geometry":{"type":"Point","coordinates":[-99.1263949,19.2777464,0]},"properties":{"name":"Oficinas del SAT","description":"Testimonio: \"Según un alto mando del Servicio de Administración Tributaria, el edificio de la Administración de Sur, no sufrió daños estructurales, solo requiere limpieza, así quieren que nos presentemos a trabajar, hoy nos arriesgaron entrando al edificio, en verdad es más importante recaudar impuestos en estos momento de tragedia, que nuestras propias vidas? <br>Que sea #ProteccionCivilCDMX quien valore las condiciones del edificio, y no personas sin conocimientos en la materia.\""}},{"type":"Feature","geometry":{"type":"Point","coordinates":[-99.1819718,19.434226,0]},"properties":{"name":"COSDAC/SEMS/SEP\n","description":"Testimonio 1: Aún no se ha solicitado la reincorporación de labores, sin embargo el edificio a simple vista no cuenta con las condiciones y confianza del personal para ocuparlo nuevamente.                                                Testimonio 2: Visiblemente el edificio quedó en malas condiciones, no es posible regresar a laborar."}},{"type":"Feature","geometry":{"type":"Point","coordinates":[-99.094718,19.4020293,0]},"properties":{"name":"Bconnect Services S.A. de C.V.","description":"Testimonio: La empresa tiene un documento donde de forma general indica que el edificio está en buenas condiciones.                                      Comentan que si no asistes será abandono de trabajo. Presentó sólo copias y se niega a presentar originales de los documentos, gente de mantenimiento de la empresa está haciendo las reparaciones superficiales se cuenta con fotos de los daños.                                                          No se tiene dictamen gubernamental y no se ha mostrado dictamen de perito particular. La empresa no dejó pasar a protección civil a evaluar el inmueble, hicieron a la gente trabajar el día 20 de septiembre y a los que no trabajaron les dieron \"dia de goce sin sueldo\", que equivale a que no se les pagó el día."}},{"type":"Feature","geometry":{"type":"Point","coordinates":[-99.176076,19.4388967,0]},"properties":{"name":"Pemex Edificio D","description":"Testimonio: La amenaza textual del subdirector de RH es: \"quien no quiera entra al edificio que le vaya buscando\" al menos es lo que dice su gente de primera línea.<br><br>no han mostrado el dictamen que certifique que las estructuras del edificio garanticen la seguridad de estar trabajando por lo que se ve a simple vista las paredes y muros están muy agrietados y tememos que con otro temblor el edificio se derrumbe por favor ayúdenos.<br><br>No cuentan con ningún documento por parte de expertos que garanticen que las estructuras del inmueble están bien el inmueble cuentan con escaleras de ambos lados en la que se pueden ver que todos los pisos están agrietadas y que pasan también por muros el edificio cuenta con 11 pisos y esta habilitado del piso uno al 7 como estacionamiento y del piso 8 al piso 11 como oficinas los pisos se encuentran inclinados tememos por nuestra seguridad las funciones que se realizan son de auditoria. Recursos humanos y de intendencia y personal de seguridad y mantenimiento.<br><br>SE HA DICHO POR AÑOS QUE ESTE EDIFICIO ES INSEGURO Y NUNCA HEMOS VISTO UN DOCUMENTO QUE DIGA LO CONTRARIO."}},{"type":"Feature","geometry":{"type":"Point","coordinates":[-99.1034481,19.4026824,0]},"properties":{"name":"PYROLAC, S.A. DE C.V.","description":"Piden revisar bien ya que son una empresa de pinturas, material inflamable, y pues solo reviso una persona que no esta capacitada para eso"}},{"type":"Feature","geometry":{"type":"Point","coordinates":[-99.079343,19.383021,0]},"properties":{"name":"Recorcholis","description":"La Dirección General de Inspección Federal del Trabajo de la Secretaría del Trabajo y Previsión Social (STPS) determinó la restricción para operar de este centro de trabajo 23/9/2017."}},{"type":"Feature","geometry":{"type":"Point","coordinates":[-99.0730182,19.3619918,0]},"properties":{"name":"UAM Iztapalapa","description":"\"El sindicato intervino y no se retomaron labores, sin embargo, de no ser por ellos estaríamos ahí.\""}},{"type":"Feature","geometry":{"type":"Point","coordinates":[-99.1813577,19.4307197,0]},"properties":{"name":"Reparadora RTD, S.A. de C.V.","description":"Solo limpiaron sin que nadie fuera a inspeccionar, empleados reportan daños durante el temblor"}},{"type":"Feature","geometry":{"type":"Point","coordinates":[-99.1448375,19.4664354,0]},"properties":{"name":"OBSTETRICS GYNECOLOGY HOSPITAL (UMAE Hospital la Raza)","description":"Los directores, y sobre todo mi jefe de Área han dicho que se debe laborar, pues declaran que está en óptima salud contidciones, pero aún así siguen haciendo revisiones, y han dicho que el que no quiera asistir es libre de hacerlo pero se le descuenta el día"}},{"type":"Feature","geometry":{"type":"Point","coordinates":[-99.1710489,19.4140935,0]},"properties":{"name":"Un Teatro","description":"No se ha comunicado formalmente las buenas condiciones del inmueble donde, además de los trabajadores, asiste público en general.                  La directora dijo que no quiere notificar los daños porque no qyiere que protección civil evalúe otros aspectos."}},{"type":"Feature","geometry":{"type":"Point","coordinates":[-99.1347795,19.4908581,0]},"properties":{"name":"Restaurante la Diana Cazadora","description":"Reporte realizado por una persona que no labora en el lugar, dice que no han dejado de trabajar a pesar de que el área estuvo acordonada"}},{"type":"Feature","geometry":{"type":"Point","coordinates":[-99.1596472,19.4155758,0]},"properties":{"name":"Universidad de la Comunicación","description":""}},{"type":"Feature","geometry":{"type":"Point","coordinates":[-99.1058316,19.3535232,0]},"properties":{"name":"Von Gregg Andrea","description":"Techo dañado"}},{"type":"Feature","geometry":{"type":"Point","coordinates":[-99.077248,19.421476,0]},"properties":{"name":"Wings","description":"El aeropuerto y mi empresa por no perder dinero dicen que no pasa nada cuando la terminal se está cayendo a pedazos y ni siquiera muestran un papel donde certifique que estamos seguros "}},{"type":"Feature","geometry":{"type":"Point","coordinates":[-99.1666207,19.4213265,0]},"properties":{"name":"Xtnegocio","description":""}},{"type":"Feature","geometry":{"type":"Point","coordinates":[-99.1743678,19.4065189,0]},"properties":{"name":"Xtnegocio","description":"\"Fue a verificar un perito que siempre nos realiza dictamenes falsos.<br>Muchos no confiamos en el.<br>Por dentro el edificio se cuarteo y ya han empezado a resanar.<br>Siempre que padan camiones el edificio tiembla, ahora tiembla mas.\""}},{"type":"Feature","geometry":{"type":"Point","coordinates":[-99.1857372,19.3519461,0]},"properties":{"name":"Axa Seguros","description":"Testimonio: Cuando iba bajando por la escalera de emergencia, vi una grieta de más de 5 cm. entre el piso del estacionamiento y el primer piso"}},{"type":"Feature","geometry":{"type":"Point","coordinates":[-99.181691,19.4527559,0]},"properties":{"name":"Resuelve tu deuda","description":"Solo comentaron que un Ing. de la Delegación recorrió el inmueble y dio el visto bueno. Sin embargo desalojaron a la empresa que ocupa los pisos 8 y 9."}},{"type":"Feature","geometry":{"type":"Point","coordinates":[-99.1544149,19.4024587,0]},"properties":{"name":"Sanborns","description":""}},{"type":"Feature","geometry":{"type":"Point","coordinates":[-99.0719083,19.4360762,0]},"properties":{"name":"Aeromexico","description":"La terminal se hunde por si sola imagina el terremoto lo que ocasionó."}},{"type":"Feature","geometry":{"type":"Point","coordinates":[-99.1791769,19.3799336,0]},"properties":{"name":"APESA SOFTWARE","description":""}},{"type":"Feature","geometry":{"type":"Point","coordinates":[-99.2339347,19.3697508,0]},"properties":{"name":"Arlex de Mexico","description":"No tenemos bronca en ir a trabajar. Sólo que en realidad vaya alguien de protección civil a revisar el lugar. Sobre todo la planta y los laboratorios la Infraestructura no da confianza."}},{"type":"Feature","geometry":{"type":"Point","coordinates":[-99.1660034,19.3681775,0]},"properties":{"name":"Sanborns Plaza Universidad","description":"Los días que estuvo cerrada la tienda mandaron personas de mantenimiento a resanar grietas y pintar para que no se notaran las grietas. El Sr. López (Gerente Distrital) está presionando para que no se deje de trabajar."}},{"type":"Feature","geometry":{"type":"Point","coordinates":[-99.1871225,19.3094042,0]},"properties":{"name":"Asecon","description":"No hay como enviar fotos, sin embargo las escaleras de todo el edificio están en muy mal estado, así como el suelo de los pisos 1 y 2"}},{"type":"Feature","geometry":{"type":"Point","coordinates":[-99.1883308,19.3937744,0]},"properties":{"name":"Santander","description":"Son visibles los daños y no se ha presentado protección civil para verificar los daños, adicionalmente nos condicionan nuestro bono y amenazan indirectamente en perder nuestro trabajo cuando exigimos mejores condiciones"}},{"type":"Feature","geometry":{"type":"Point","coordinates":[-99.0944514,19.421038,0]},"properties":{"name":"Atento","description":"En el edificio de la empresa atento aeropuerto se ven grietas muy grandes, diagonales, que atraviesan todo el muro en dos paredes de dos escaleras ,que parecen peligrosas. La abogada asegura que ella misma estuvo con los que revisaron el lugar pero dice que no tiene ningún papel que avale su dicho pero que hay que confiar en ella. Incluso la encargada de estos casos (asuntos generales) dice que es el área encargada para una revisión rápida y que no se dañó la estructura solo lo superficial. Sin embargo este dicho no es tampoco avalado por un visto bueno de protección civil. Así que al no poder ellos comprobar la seguridad, ni garantizarla más que cómo palabra pienso que no están asegurando ninguna condición realmente o de forma legal y qué bien podríamos estar en riesgo pues nada lo avala.     El día del sismo se pagará solo unas cuantas horas cuando estaba estipulado que se pagará el día completo.<br> Así mismo no hay documento que avale la seguridad del edificio.<br> No hubo un día de descanso después del sismo"}},{"type":"Feature","geometry":{"type":"Point","coordinates":[-99.1263949,19.2777464,0]},"properties":{"name":"Oficinas del SAT","description":"Según un alto mando del Servicio de Administración Tributaria, el edificio de la Administración de Sur, no sufrió daños estructurales, solo requiere limpieza, así quieren que nos presentemos a trabajar<br>Que sea #ProteccionCivilCDMX quien valore las condiciones del edificio, y no personas sin conocimientos en la materia.<br><br>Nos hacen trabajar y no tienen un documento oficial donde diga que el lugar es seguro y las instalaciones aún están en reparación.<br><br>Sólo pusieron un documento de RH que ellos ya revisaron \"ocularmente\" y que \"esta bien el inmueble\". Que protección civil esta ocupada en hospitales y escuelas y que no irán a la empresa, que no obtendrán ese certificado."}},{"type":"Feature","geometry":{"type":"Point","coordinates":[-99.1615175,19.3746229,0]},"properties":{"name":"Scanda","description":""}},{"type":"Feature","geometry":{"type":"Point","coordinates":[-99.1587541,19.4274482,0]},"properties":{"name":"Atento Site Dinamarca","description":"Supuestamente realizaron la evaluación del edificio, nunca asistio Proteccion Civil e incluso estamos a un lado de un Edificio apunto de colapsar."}},{"type":"Feature","geometry":{"type":"Point","coordinates":[-99.1839713,19.2984854,0]},"properties":{"name":"scitum","description":"Exigieron que nos presentamos en las instalaciones para laborar, con el pretexto de que las instalaciones son seguras, sin embargo, nunca se presentó un documento que avalara esto ni se llamó a protección civil."}},{"type":"Feature","geometry":{"type":"Point","coordinates":[-99.1737349,19.3726277,0]},"properties":{"name":"AXA SEGUROS","description":"Mientras hemos ido a trabajar han estado arreglando plafones y lámparas estando ahí, reacomodando la duela, caminas y se sienten partes levantadas o sumidas, no es visible porque está alfombrado, lo que está totalmente agrietado es la zona de las escaleras y esto es piso por piso"}},{"type":"Feature","geometry":{"type":"Point","coordinates":[-99.1207625,19.3113626,0]},"properties":{"name":"SECRETARÍA DE COMUNICACIONES Y TRANSPORTES","description":"Se nos informo la seguridad en forma verbal, pero nos sentimos inseguros, x no existir realmente una buena revisión del lugar, aunque son visibles unos daños, nos aseguran q no pasa nada"}},{"type":"Feature","geometry":{"type":"Point","coordinates":[-99.16593,19.367254,0]},"properties":{"name":"Sears","description":"Informo que el 21 de septiembre del 2017 a las 12:40 de la tarde se abrió la tienda de Sears universidad teniendo unas partes de la tienda que nos preocupan a la mayoría de los empleados, vinieron a checar el día 20 de septiembre por parte de carso unos arquitectos pero no se nos informo si el inmueble estaba en buenas condiciones solo lo sabe la gerente de tienda y el día de hoy 21 de septiembre se nos informó en general que solo era el cascarón o lo superficial lo que estaba dañado "}},{"type":"Feature","geometry":{"type":"Point","coordinates":[-99.2144994,19.4421609,0]},"properties":{"name":"Autoridad de Zonas Economicas","description":""}},{"type":"Feature","geometry":{"type":"Point","coordinates":[-99.1669282,19.4231828,0]},"properties":{"name":"Hotel & Suites PF","description":"Testimonio: Edificio con un piso añadido de manera clandestina a base de pura tablaroca y techo de durock. No tiene permiso actualizado para trabajar ese piso adicional, así como instalaciones poco mantenidas y con ruptura de cristales. Es del mismo dueño del Hotel PF, negligencia y corrupción a flor de piel."}},{"type":"Feature","geometry":{"type":"Point","coordinates":[-99.166195,19.4238904,0]},"properties":{"name":"Hotel PF","description":"Testimonio: Edificio de hotel con casi 32 años de antigüedad, ya con visible inclinación y deformación en la división con aledaños. Recientemente remodelaron y pusieron loseta de mosaico que da un peso adicional a la estructura que muy probablemente no está preparado para ello y antes tenía piso laminado más ligero."}},{"type":"Feature","geometry":{"type":"Point","coordinates":[-99.1782242,19.3934898,0]},"properties":{"name":"SCT","description":"Dirección General de Desarrollo Ferroviario y Multimodal: El director general quiere obligar al personal a trabajar en un edificio dañado por el sismo del 19/09/17"}},{"type":"Feature","geometry":{"type":"Point","coordinates":[-99.0430393,19.3007433,0]},"properties":{"name":"IECM Almacén de Materiales Electorales","description":""}},{"type":"Feature","geometry":{"type":"Point","coordinates":[-99.2016522,19.5698022,0]},"properties":{"name":"IEM","description":"Testimonio: El comedor señor incendio cuando fue el terremoto"}},{"type":"Feature","geometry":{"type":"Point","coordinates":[-99.1780663,19.4294376,0]},"properties":{"name":"Becerril, Coca & Becerril, SC","description":"tengo foto que acredita los daños en muros a partir de terremoto del martes; Tengo foto de las escaleras donde los siete pisos están los muros rasgados y con pedazos de muro en el suelo."}},{"type":"Feature","geometry":{"type":"Point","coordinates":[-99.1337929,19.4475051,0]},"properties":{"name":"Guardería IMSS 013","description":"Testimonio: Es una guarderia del imss pero me preocupa que en el área de los lactantes el piso se siente hueco"}},{"type":"Feature","geometry":{"type":"Point","coordinates":[-99.205669,18.9221515,0]},"properties":{"name":"IMSS","description":"Testimonio: A pesar de que la empresa presentó un \"peritaje\" nosotros los trabajadores no estamos seguro de que eso sea realmente verídico, se nos ha empezado a obligar a trabajar bajo amenazas si no entramos a la torre hospitalaria, solo pedimos una tercera opinión de alguien ajeno a la empresa y tener un lugar seguro donde realizarte cómo profesionista. Gracias<br><br>Creemos que el documento q presentan no es fiable, ya que nosotros vemos otras cosas<br><br>Hay un documento pero sin las firmas oficiales tanto de protección civil como institucionales"}},{"type":"Feature","geometry":{"type":"Point","coordinates":[-99.1725609,19.4233179,0]},"properties":{"name":"Oficinas del IMSS","description":"Testimonio: los edificios del IMSS han estado afectados desde 1985 y lo único que hacen es recubrir paredes y volver a colocar plafones mosaicos pero están muy dañados los edificios y a un lado está la guardería del IMSS.<br><br>Se nos pidió asistir el día de mañana a la 1:30pm para sacar los equipos de cómputo y archivo, sin embargo no hay un dictamen al respecto y el inmueble de alado Toledo 21 está igual."}},{"type":"Feature","geometry":{"type":"Point","coordinates":[-99.1335333,19.4370458,0]},"properties":{"name":"SEP","description":""}},{"type":"Feature","geometry":{"type":"Point","coordinates":[-99.1621239,19.4002109,0]},"properties":{"name":"Calle Center empresa Boiler Calderex","description":""}},{"type":"Feature","geometry":{"type":"Point","coordinates":[-99.1308718,19.4218912,0]},"properties":{"name":"Secretaría de Salud de la Ciudad de México, Unidad de Transparencia","description":"ESTOY PIDIENDO A PETICIÓN DE LOS COMPAÑEROS QUE AHÍ LABORAN LAS FOTOS LAS HAN PUBLICADO EN FACEBOOK Y TUIWTER, NO QUIEREN ENTRAR EDIFICIO PLENAMENTE DAÑADO DESDE EL SISMO DEL 85"}},{"type":"Feature","geometry":{"type":"Point","coordinates":[-99.1361463,19.3304771,0]},"properties":{"name":"Escuela Secundaria Diurna No. 101 \"Ludwig Van Beethoven\"","description":"Queremos estar seguros por los alumnos y nosotros los docentes"}},{"type":"Feature","geometry":{"type":"Point","coordinates":[-99.1509569,19.4115918,0]},"properties":{"name":"Centro Médico S XXI Oncología","description":""}},{"type":"Feature","geometry":{"type":"Point","coordinates":[-99.1355234,19.4858071,0]},"properties":{"name":"IMSS Hospital Gineco Obstetricia 3a","description":"Testimonio: Están maquillado ya las instalaciones de la gineco 3a entro una empresa externa a hacer limpieza albañiles han entrado es urgente se presenten a hacer un peritaje externo. Nos urge un dictamen de seguridad; se siguen recibiendo derechohabientes. Desde este fin de semana ya se hacen labores para resanar y cubrir los daños sin haber mostrado un dictamen oficial donde nos informen que es seguro laborar ahí."}},{"type":"Feature","geometry":{"type":"Point","coordinates":[-99.162384,19.425475,0]},"properties":{"name":"Informes México S.A. de C.V.","description":"Pisos 11 y 22<br><br>Testimonio: Ayúdenos a revisar el edificio por favor<br><br>Existen daños muy fuertes a lo largo de todos los pisos en paredes (expuestas con grietas muy grandes), escaleras (en algunos pisos presentan separación), muros (grietas) ... la empresa ha indicado que solo son daños estéticos y están haciendo reparaciones y limpieza para que se reinicien labores le martes o miércoles .... hemos pedido el dictamen de protección civil y han indicado que ya fue un arquitecto a revisar y los daños solo con estéticos.<br><br>Favor de revisar el inmueble ya que sufrió daños importantes y solo están resanando de manera superficial; los daños más severos se encuentran en las vías de salidas y accesos, elevadores y escaleras."}},{"type":"Feature","geometry":{"type":"Point","coordinates":[-99.172342,19.4098067,0]},"properties":{"name":"Instituto Aberdeen","description":"Testimonio: hay muchos edificios dañados alrededor de esta escuela y las escaleras son muy peligrosas. La directora los obliga a trabajar a pesar de ser una delegación señalada como de riesgo para los planteles educativos"}},{"type":"Feature","geometry":{"type":"Point","coordinates":[-99.1128812,19.3890441,0]},"properties":{"name":"SECUNDARIA DIURNA No. 113 PROFESOR FRANCISCO NICODEMO","description":"El sismo pasado la misma escuela tuvo daños."}},{"type":"Feature","geometry":{"type":"Point","coordinates":[-99.1877353,19.3632309,0]},"properties":{"name":"INEE Instituto Nacional para la Evaluación de la Educación","description":"Testimonio: La empresa envió un dictamen de ingenieros sin embargo la empresa que supuestamente hizo el peritaje no tiene información pública o sitio web."}},{"type":"Feature","geometry":{"type":"Point","coordinates":[-99.1223483,19.3798297,0]},"properties":{"name":"Subdelegación 9 IMSS, Santa Anita, Ciudad De México","description":"Estamos laborando desde el día de hoy amenazados, que de no asistir, nos despedirán."}},{"type":"Feature","geometry":{"type":"Point","coordinates":[-99.0196749,19.4083623,0]},"properties":{"name":"Instituto Tecnológico Roosevelt","description":"Testimonio: Dieron una circular que indica todo está en óptimas condiciones pero en la cual no existe ninguna dependencia que la avale, como protección civil."}},{"type":"Feature","geometry":{"type":"Point","coordinates":[-99.133449,19.3852593,0]},"properties":{"name":"Preparatoria y Secundaria Instituto Villa de Cortes","description":"Testimonio: Esta escuela no cuenta con el documento de seguridad del gobierno/protección civil y nos piden presentarnos a laborar. Laboramos el día viernes 22 sept y este lunes 25 sept nos piden lo mismo."}},{"type":"Feature","geometry":{"type":"Point","coordinates":[-99.1592181,19.4325682,0]},"properties":{"name":"SEDUVI Secretaría de Desarrollo Urbano y Vivienda","description":"Estamos con la incertidumbre de que pasara, nos encontramos a un predio de distancia ya que a simple vista hay daños visiblemente graves en ese edificio."}},{"type":"Feature","geometry":{"type":"Point","coordinates":[-99.1767253,19.4897822,0]},"properties":{"name":"STPS Junta Federal de Conciliación y Arbitraje","description":""}},{"type":"Feature","geometry":{"type":"Point","coordinates":[-99.1454423,19.424517,0]},"properties":{"name":"Junta Local de Conciliación y Arbitraje del Distrito Fedral","description":"Testimonio: No trabajo ahí es un edificio publico pero si asisto todos los días como usuario el edificio está muy viejo y dañado soporta mucho peso todos los días por la cantidad de gente que acude al mismo, presentaron un supuesto dictamen de que el edificio está bien pero no está sustentado y los usuarios tenemos temor respecto de la estructura , adicionalmente no hay espacios óptimos de evacuación, el edificio está hundiendose y los trabajadores de la propia junta local de conciliación y arbitraje de la cdmx no quieren arriesgarse a seguir laborando ahi"}},{"type":"Feature","geometry":{"type":"Point","coordinates":[-99.1592303,19.4224884,0]},"properties":{"name":"Seguros Atla, SA","description":"Me da miedo asistir porque los dueños del edificio es la aseguradora los señores Vega y pues ah no pagamos renta por eso quieren que sigamos ahí hay otras empresas rentando como Sodexo y algunas promotoras ayúdenme"}},{"type":"Feature","geometry":{"type":"Point","coordinates":[-99.1974118,19.4527516,0]},"properties":{"name":"Kelvin S.A. de C.V.","description":"Testimonios: El día del temblor no quisieron realizar el simulacro para que no perdiéramos tiempo, y en cuanto inicio del temblor era nuestra hora de comida el jefe bajo corriendo las escaleras dejando a dos compañeras arriba y nos condiciono que si nos íbamos y no regresábamos antes de que terminará nuestra hora de comida nos descontarían el día. Además de que sus bodegas en el 3er piso corrían riesgo por el peso bajo su mercancía y a todos sus trabajadores(producción) los subió a lo que era el área de bodegas.<br><br>\"El día miércoles fue un ingeniero a revisar el inmueble y dijo que la parte de las bodegas en el 3er piso estaban dañadas y necesitaban desalojarlas. El Lic. Andrés Ortega lo que hizo fue ordenar bajar la mercancía y subió al área afectada a toda el área de producción. Acaba de llegar un nuevo cargamento y las salidas están llenas de cajas y producto que impiden una pronta salida. En verdad espero que la denuncia sea anónima y puedan ayudarnos a hacer algo al respecto.<br> Gracias\""}},{"type":"Feature","geometry":{"type":"Point","coordinates":[-99.6403568,19.295827,0]},"properties":{"name":"Sopas La Moderna","description":""}},{"type":"Feature","geometry":{"type":"Point","coordinates":[-99.1861795,19.438045,0]},"properties":{"name":"Av Ejército Nacional 373","description":""}},{"type":"Feature","geometry":{"type":"Point","coordinates":[-99.1883979,19.3041487,0]},"properties":{"name":"Liverpool Perisur","description":"La salida de emergencia del sótano se tuvo que abrir a fuerzas ya que no estaba la llave"}},{"type":"Feature","geometry":{"type":"Point","coordinates":[-99.133231,19.431071,0]},"properties":{"name":"Liverpool Centro","description":""}},{"type":"Feature","geometry":{"type":"Point","coordinates":[-99.1829073,19.3036658,0]},"properties":{"name":"SENASICA","description":"Nos mandaron un documento mencionando que los daños son leves, sin embargo el día de hoy que estoy laborando, las escaleras de servicio se encuentran muy dañadas, son 9 pisos, las del piso 3-4-5 están despegadas de la pared y hay grietas que parecieran de 45 grados. En el sismo anterior (07/09/2017) los arquitectos del edificio negaron daños y se pusieron a la defensiva, no dudo que el edificio sea resistente, sin embargo, los daños que presenta en las escaleras y en otros pisos, parece grave. <br>Somos mas de 1000 personas en el edificio y no se como sea la estabilidad del suelo o de las escaleras o los elevadores, pero si recomiendo que profundamente que se valide oficialmente por que de verdad las escaleras son un desastre. las grietas y son bastante grandes. Cabe mencionar que ya están trabajando en ello, están pintando y recubriendo las grietas. "}},{"type":"Feature","geometry":{"type":"Point","coordinates":[-99.1759644,18.9173598,0]},"properties":{"name":"Servicios Profesionales Unilever","description":"La Planta de Aerosoles es de alto riesgo por el propelente que se maneja. Tengo miedo de asistir."}},{"type":"Feature","geometry":{"type":"Point","coordinates":[-99.1500985,19.4360582,0]},"properties":{"name":"Lotería Nacional","description":"Testimonio: No obligaron a nadie a quedarse a trabajar en ese edificio después del terremoto, re ubicaron a todo el personal, sin embargo, nos hicieron subir a los pisos por los documentos/equipo, que se requerían para seguir trabajando en lo \"pendiente\" aún cuando el edificio está en riesgo."}},{"type":"Feature","geometry":{"type":"Point","coordinates":[-99.1891493,19.3043936,0]},"properties":{"name":"Maison Kayser","description":""}},{"type":"Feature","geometry":{"type":"Point","coordinates":[-99.1635443,19.4259292,0]},"properties":{"name":"Londres 107","description":""}},{"type":"Feature","geometry":{"type":"Point","coordinates":[-99.1808799,19.3849055,0]},"properties":{"name":"Media Global","description":"Testimonio: Trabajaron toda la semana en la que ocurrió el sismo. El día 19, después de que pasó el temblor, no se revisaron las instalaciones del edificio, el jefe decidió retirarse y dejar a los empleados, a quienes no se les permitió salir de la oficina hasta aproximadamente las 6 de la tarde."}},{"type":"Feature","geometry":{"type":"Point","coordinates":[-99.1677016,19.3919914,0]},"properties":{"name":"SICREA Autofinanciamiento Nissan","description":"Sitio visitado por el equipo. Recogimos testimonios de los daños<br><br>El edificio es muy antiguo. La empresa obliga a los trabajadores a asistir a pesar de que no se ha inspeccionado el lugar de trabajo."}},{"type":"Feature","geometry":{"type":"Point","coordinates":[-99.1617507,19.4182726,0]},"properties":{"name":"Pre medi Test s.a. De c.v.","description":"Nadie nos da respuesta de en qué condiciones está el edificio y no nos enseña ningún documento donde explique si ya se puede ocupar el mismo."}},{"type":"Feature","geometry":{"type":"Point","coordinates":[-99.174661,19.420699,0]},"properties":{"name":"Mega Travel","description":"Pisos 1 al 7<br><br>Testimonio: Dicen que no son daños estructurales, que es seguro, ya también se rompió tubería<br><br>Los pisos y los muros están muy dañados y hay huecos en las paredes y se ven los tabiques"}},{"type":"Feature","geometry":{"type":"Point","coordinates":[-99.1433754,19.4271838,0]},"properties":{"name":"Sistema de Transporte Metro","description":"Se trata del edificio del metro, anexo a la estación salto del agua, de línea 1, que presenta grietas en columnas, principalmente en primero, segundo y tercer pisos, el primer piso ya no tiene gente, pero los pisos del segundo al sexto nos están obligando a permanecer aquí, a pesar de haber daños evidentes y que no hay un dictamen oficial de que el edificio pueda ser utilizado sin riesgo, por lo que solicitamos su ayuda, ya que los trabajadores no se atreven a desalojar por las amenazas de los funcionarios jefes, Gracias"}},{"type":"Feature","geometry":{"type":"Point","coordinates":[-99.1674981,19.4102316,0]},"properties":{"name":"Mercadirec S.A. de C.V.","description":"Despacho 404<br><br>Testimonio: el jefe de la empresa donde trabajo nos indico que ya había ido protección civil eso fue el día viernes 22 de septiembre, yo no le creí sin documento, después de unas horas de que me retire del edificio, supe que protección civil los desalojo lo cual indica que no fue verdad lo que dijo mi jefe que protección civil fue a revisar el edificio, el día de hoy domingo recibí un mensaje que decía que el dictamen estaba listo para poder elaborar con seguridad y que podía ir en horario normal, pero también mando fotos del supuesto documento de protección civil, no es el que indica mancera que es verdadero si no es otro documento, en el documento que mandaron, las fechas no concuerdan, mis compañeros y yo tememos por nuestra seguridad<br><br>\"Necesitamos que la empresa nos enseñe un documento real, y que se inspeccione el edificio por protección civil, que haya un documento pegado afuera del edificio que este mismo ya está evaluado en su totalidad, ya que nos sentimos inseguros de entrar!"}},{"type":"Feature","geometry":{"type":"Point","coordinates":[-99.0781188,19.42248,0]},"properties":{"name":"Starbucks Aeropuerto Terminal 2","description":""}},{"type":"Feature","geometry":{"type":"Point","coordinates":[-99.1665184,19.4056773,0]},"properties":{"name":"Previta","description":"La empresa se encuentra en el piso 10 y 11 del edificio"}},{"type":"Feature","geometry":{"type":"Point","coordinates":[-99.120259,19.4056904,0]},"properties":{"name":"Laboratorios De Grupo Microanalisis Sa De Cv","description":"Testimonio: Testimonio: Si no asistimos a trabajar no lo quieren descontar de los días de vacaciones<br><br>La principal preocupación se debe a que es un laboratorio y ocupamos algunos gases inflamables así como reactivos peligrosos y muestras biológicas."}},{"type":"Feature","geometry":{"type":"Point","coordinates":[-99.1677375,19.4073321,0]},"properties":{"name":"Subdelegación 6 Piedad-Narvarte IMSS","description":""}},{"type":"Feature","geometry":{"type":"Point","coordinates":[-99.1717246,19.4024717,0]},"properties":{"name":"Procsa","description":""}},{"type":"Feature","geometry":{"type":"Point","coordinates":[-99.0676045,19.3470029,0]},"properties":{"name":"Suburbia - Margaritas","description":"Las condiciones de las instalaciones estan muy mal y el techo de uno de los departamentos esta por caerse"}},{"type":"Feature","geometry":{"type":"Point","coordinates":[-99.1703385,19.4061048,0]},"properties":{"name":"Corporativo Mundo Joven","description":"Testimonio: Sólo se tiene un documento de \"revisión rápida \" sin embargo hay daños visibles que nos tienen nerviosos"}},{"type":"Feature","geometry":{"type":"Point","coordinates":[-99.1213429,19.3800245,0]},"properties":{"name":"PGJ CARIVA","description":"Carecemos de salida de emergencia y no ha acudido protección civil de la CDMX."}},{"type":"Feature","geometry":{"type":"Point","coordinates":[-99.1485322,19.4238851,0]},"properties":{"name":"Procuraduría General de Justicia de la CDMX","description":"Nunca dejamos de trabajar después del sismo, siempre hubo actividades normales. Enviaron un comunicado diciendo que se reanudan labores el lunes."}},{"type":"Feature","geometry":{"type":"Point","coordinates":[-99.169855,19.345428,0]},"properties":{"name":"Carl Zeiss de México, S.A. de C.V.","description":""}},{"type":"Feature","geometry":{"type":"Point","coordinates":[-99.1523448,19.4200464,0]},"properties":{"name":"Procuraduría General de la República Delegación Metroplitana","description":"Por favor pido a protección civil certificados que vayan a checar el inmueble."}},{"type":"Feature","geometry":{"type":"Point","coordinates":[-99.1946565,19.358826,0]},"properties":{"name":"Profuturo","description":"Se nos obligó a ir a trabajar amenazandonos o haciendo incapie en la posibilidad de perder el bono por inasistencia. Ante las quejas de los trabajadores han pintado grietas para evitar su mayor visibilidad, pese a ello cada piso del edificio presenta grietas de metros y hasta el momento no hemos visto ningún documento que avale la revisión. Espero no se haga caso omiso a la petición, ya que dicho edificio si es de altura considerable y laboramos miles de personas que arriesgamos nuestra vida dentro de este corporativo.El edificio tiene grandes cuarteaduras en cada piso de los 9 que cuenta"}},{"type":"Feature","geometry":{"type":"Point","coordinates":[-99.1715723,19.4185503,0]},"properties":{"name":"Centro Hospitalario Sanatorio Durango","description":""}},{"type":"Feature","geometry":{"type":"Point","coordinates":[-99.1717509,19.3950394,0]},"properties":{"name":"Publiseg SAPI de CV SOFOM ENR","description":"Nos están forzando a trabajar, hoy que nos negamos a entrar nos ofrecieron una compensación porque nos quedáramos,no hay documento que avale que es un lugar seguro. Ayuda por favor."}},{"type":"Feature","geometry":{"type":"Point","coordinates":[-99.1518387,19.4500827,0]},"properties":{"name":"The Home Store","description":"La oficina de gerencia quedó desecha gracias a la mala construcción de los muros, los ladrillos superiores calleron en la tablaroca de la tienda y hay huecos en el techo, las paredes no están bien estructuradas y algunas tienen cuarteaduras. Sin mencionar el hecho de que se tiene el edificio superior que es un hotel en construcción."}},{"type":"Feature","geometry":{"type":"Point","coordinates":[-99.1710524,19.3978475,0]},"properties":{"name":"Rehab sport","description":"Compañerxs tuvieron crisis al momento del sismo y ahora tienes postraumático algunas compañeras siguen llorando y están muy nerviosas. Algunos que no acudimos el miércoles 20 a trabajar nos descontaran el día. El doctor Guillermo nos condiciona el pago."}},{"type":"Feature","geometry":{"type":"Point","coordinates":[-99.181934,19.3355572,0]},"properties":{"name":"Centro Universitario Cultural, A.C.","description":""}},{"type":"Feature","geometry":{"type":"Point","coordinates":[-99.2155807,19.3297356,0]},"properties":{"name":"Toks","description":"El restaurante TOKS se encuentra en la plaza San Jerónimo a lado de un Starbucks, el personal de RH han referido que si no asisten a trabajar los liquidan, hasta dónde se tienen conocimiento no ha dado ningún dictamen protección civil, Se empezó a Laborar un día después del terremoto, 20 de septiembre, espero asistan para regular está situación ya que no sólo pone en riesgo la vida de los trabajadores sino de los clientes que ingresan al establecimiento."}},{"type":"Feature","geometry":{"type":"Point","coordinates":[-99.133734,19.427347,0]},"properties":{"name":"Ceyt de México","description":"Es una institución Educativa, la cual sólo están pintando las grietas que existen, para evitar que los alumnos se den de baja, además de que el edificio de alado, se derrumbó una parte de sus paredes y callerin en el sótano del mismo edificio"}},{"type":"Feature","geometry":{"type":"Point","coordinates":[-99.165471,19.517167,0]},"properties":{"name":"Rexite SA de CV","description":"Nosotros los trabajadores difícilmente podremos decir si hay daños o no por miedo a que nos despidan los daños son visibles por dentro y nos hicieron trabajar sin haber revisado el inmueble."}},{"type":"Feature","geometry":{"type":"Point","coordinates":[-99.1721138,19.4125932,0]},"properties":{"name":"RobotiX Center Condesa","description":""}},{"type":"Feature","geometry":{"type":"Point","coordinates":[-99.2099981,19.4307694,0]},"properties":{"name":"CIBanco","description":"Buenas tardes. Quiero dejar asentado que CIBanco pidió acudir a sus colaboradores a trabajar al día siguiente después del sismo. Jamás se nos indicó que personas revisaron el edificio. No se nos ha mostrado dictamen alguno por parte de protección civil. El daño es notorio en los baños. Las escaleras del edificio se separaron del muro! En ocasiones se sienten vibraciones en el edificio. Por favor, acudan a revisar el edificio. Denuncien con las autoridades correspondientes. Somos gente honrada que tenemos familias que mantener. Sentimos temor de acudir a trabajar. Gracias por su valioso apoyo"}},{"type":"Feature","geometry":{"type":"Point","coordinates":[-99.1369605,19.4251717,0]},"properties":{"name":"sacmex","description":"La empresa es de Gobierno no a ido nadie a hacer la revisión y el edificio esta muy mal el jueves y viernes estuvimos hay afuera los trabajadores y nadie a ido a revisar y quieren que vayamos a trabajar el lunes pero todos los trabajadores tienen miedo de estar en el edificio y a sus alrededores, no es segura la calle tampoco y el lunes todos iremos pero no entraremos hasta que este el dictamen, por favor vayan a verlo y revisarlo urgente. Quisiera de favor que fueran a revisar nadie ha ido y esta en mal estado los trabajadores tenemos miedo de ir mañana estaremos desde las 8 hay afuera y nadie entrara asta que lo reciben por favor vayan hay los esperamos afuera"}},{"type":"Feature","geometry":{"type":"Point","coordinates":[-99.1658059,19.3668224,0]},"properties":{"name":"Cielito Querido","description":""}},{"type":"Feature","geometry":{"type":"Point","coordinates":[-99.1469431,19.3884251,0]},"properties":{"name":"Torre de telecomunicaciones de México","description":"Necesitamos un dictamen real"}},{"type":"Feature","geometry":{"type":"Point","coordinates":[-99.1717368,19.4174425,0]},"properties":{"name":"Sanatorio Durango","description":"Son varios edificios pertenecientes a sanatorio Durango."}},{"type":"Feature","geometry":{"type":"Point","coordinates":[-99.1955791,19.4297479,0]},"properties":{"name":"Banamex","description":""}},{"type":"Feature","geometry":{"type":"Point","coordinates":[-99.1742621,19.3891914,0]},"properties":{"name":"Tribunal de lo Contencioso Administrativo del Distrito Federal","description":"Se reanudan labores en el Tribunal el día 25 de septiembre aún sin un dictamen oficial y documental que nos garantice la seguridad a todos los servidores públicos y público en general."}},{"type":"Feature","geometry":{"type":"Point","coordinates":[-99.142888,19.340068,0]},"properties":{"name":"CLEU campus DF Criminología y Criminalística","description":""}},{"type":"Feature","geometry":{"type":"Point","coordinates":[-99.2159025,18.9241331,0]},"properties":{"name":"Hospital General Regional No 01","description":"Me gustaría que fueran a hacer una inspección al hospital y a la coordinación de abastecimiento y equipamiento, almacén delegacional, ya que no cuenta con la infraestructura ni lineamientos, de edificación propios de un centro de trabajo, oficina, hospital y almacén. Condiciones precarias y jamás se ha dado un acondicionamiento idóneo.' Los directivos.lucran con la salud de los pacientes, usuarios y trabajadores imss."}},{"type":"Feature","geometry":{"type":"Point","coordinates":[-99.1598215,19.4234999,0]},"properties":{"name":"Santander","description":"Una parte de las escaleras tiene un muro separado. El edificio muestra daños importantes y la empresa está comprometida con la operación más no con la seguridad de sus empleados."}},{"type":"Feature","geometry":{"type":"Point","coordinates":[-99.1450715,19.2986218,0]},"properties":{"name":"B connect Viad. Tlalpan 584 ","description":"Es una empresa privada que tiene licitación con el SAT somos marcaSAT prestamos asesorías telefónicas a contribuyentes. Eulen México es el dueño del edificio pero b Connect es el patrón, el.peritaje privado duro menos de media hora y es un edificio de 7 pisos no nos dejan subir a los pisos de arriba nos mantienen en los primeros ocultan información y amenazan y condicionan"}},{"type":"Feature","geometry":{"type":"Point","coordinates":[-99.1115627,19.4057834,0]},"properties":{"name":"Viad. Río de la Piedad 507","description":""}},{"type":"Feature","geometry":{"type":"Point","coordinates":[-99.1116051,19.4056088,0]},"properties":{"name":"SAT","description":"NOS AMENAZAN LOS JEFES.<br><br>Aprovecharon el fin de semana para parchar los desperfectos."}},{"type":"Feature","geometry":{"type":"Point","coordinates":[-99.1782242,19.3934898,0]},"properties":{"name":"SCT","description":"Varias personas realizamos nuestro Servicio Social, así como los trabajadores de tiempo completo. Por lo cual necesitamos sea revisado para sentirnos seguros, sólo resanan."}},{"type":"Feature","geometry":{"type":"Point","coordinates":[-99.0577986,19.5745232,0]},"properties":{"name":"Colomer, S.A. De C.V.","description":"So lo dicen que iran a verificar y nunca van"}},{"type":"Feature","geometry":{"type":"Point","coordinates":[-99.1793156,19.4357972,0]},"properties":{"name":"Comercializadora Cader S.A. de C.V","description":"Hasta las escaleras tiene derrumbe"}},{"type":"Feature","geometry":{"type":"Point","coordinates":[-99.16593,19.367254,0]},"properties":{"name":"Sears","description":"Gerente de área ha castigado a varios compañeros por mostrar su punto de vista."}},{"type":"Feature","geometry":{"type":"Point","coordinates":[-99.1486308,19.4235952,0]},"properties":{"name":"Tribunal Superior de Justicia del Distrito Federal","description":"Maquillan el inmueble , es de trece pisos , sufrido muchos daños y ese inmueble fue desalojado por diversas empresas por el temblor del ochenta y cinco, los edificios de la parte de atrás los desalojaron por miedo a que se derrumbe el edificio y así el presidente dice que está en buenas condiciones es un inmueble que diaria.ente alberga como tres mil personas."}},{"type":"Feature","geometry":{"type":"Point","coordinates":[-99.187801,19.3612855,0]},"properties":{"name":"Seguro Popular - Comisión Nacional de Protección Social en Salud","description":"Durante la evacuación las escaleras principales estuvieron a punto de colapsar, en días posteriores se noto el remozamiento de acabados y pintura en toda el área de escaleras se informó que no había daño estructural sin presentar algún dictamen emitido por alguna autoridad facultada para esto.<br><br>Los muros de las escaleras presentan grietas que cubrieron con pintura un día después."}},{"type":"Feature","geometry":{"type":"Point","coordinates":[-99.1574206,19.4256151,0]},"properties":{"name":"Dirección General de Juegos y Sorteos","description":"El edificio sufrió severos daños en el terremoto del 85, la mitad del edificio se derrumbó en ese terremoto y demolieron esa sección, el resto del edificio siguió en funcionamiento, gente que labora en el lugar me comentó que durante el sismo del pasado martes vieron cómo las escaleras se separaron del edificio unos 10 centímetros cuando intentaban bajar, no se ha derrumbado pero al día siguiente del sismo algunas personas que fueron al edificio vieron que estaba en muy malas condiciones, en el edificio laboran cerca de 1000 personas."}},{"type":"Feature","geometry":{"type":"Point","coordinates":[-99.136828,19.448176,0]},"properties":{"name":"El Universal","description":""}},{"type":"Feature","geometry":{"type":"Point","coordinates":[-99.1371322,19.2872702,0]},"properties":{"name":"Universidad Autónoma Metropolitana","description":"Soy empleado por honorarios y siento que mi pago y permanencia en la institución depende de mi presencia en las oficinas apesar de la situación y las condiciones de seguridad. Así como yo, hay otros."}},{"type":"Feature","geometry":{"type":"Point","coordinates":[-99.1402753,19.4195984,0]},